{
  "type": "FeatureCollection",
  "features": [
    {
      "type": "Feature",
      "geometry": {
        "type": "Point",
        "coordinates": [
          141.392,
          42.758
        ]
      },
      "properties": {
        "都道府県": "北海道",
        "名称": "支笏カルデラ",
        "地理的特徴・成り立ち": "更新世後期の大規模火砕流噴出で形成された陥没カルデラ。後カルデラ火山が周縁に発達。",
        "地形タイプ": "火山地形",
        "植生": "高山・亜高山帯（ハイマツ・ダケカンバ）",
        "QC": "ok"
      }
    },
    {
      "type": "Feature",
      "geometry": {
        "type": "Point",
        "coordinates": [
          140.835,
          42.565
        ]
      },
      "properties": {
        "都道府県": "北海道",
        "名称": "洞爺カルデラ",
        "地理的特徴・成り立ち": "約11万年前の巨大噴火に伴うカルデラ。中央火口丘として有珠山が成長。",
        "地形タイプ": "火山地形",
        "植生": "高山・亜高山帯（ハイマツ・ダケカンバ）",
        "QC": "ok"
      }
    },
    {
      "type": "Feature",
      "geometry": {
        "type": "Point",
        "coordinates": [
          140.807,
          42.826
        ]
      },
      "properties": {
        "都道府県": "北海道",
        "名称": "羊蹄山",
        "地理的特徴・成り立ち": "独立円錐状の成層火山。第四紀の反復噴火で形成。",
        "地形タイプ": "火山地形",
        "植生": "高山・亜高山帯（ハイマツ・ダケカンバ）",
        "QC": "ok"
      }
    },
    {
      "type": "Feature",
      "geometry": {
        "type": "Point",
        "coordinates": [
          142.853,
          43.662
        ]
      },
      "properties": {
        "都道府県": "北海道",
        "名称": "大雪山系",
        "地理的特徴・成り立ち": "複成火山群。圏谷などの氷河地形と溶岩円頂丘が発達。",
        "地形タイプ": "火山地形",
        "植生": "高山・亜高山帯（ハイマツ・ダケカンバ）",
        "QC": "ok"
      }
    },
    {
      "type": "Feature",
      "geometry": {
        "type": "Point",
        "coordinates": [
          142.686,
          43.418
        ]
      },
      "properties": {
        "都道府県": "北海道",
        "名称": "十勝岳",
        "地理的特徴・成り立ち": "安山岩質成層火山。火砕丘群とラハール堆積が顕著。",
        "地形タイプ": "火山地形",
        "植生": "高山・亜高山帯（ハイマツ・ダケカンバ）",
        "QC": "ok"
      }
    },
    {
      "type": "Feature",
      "geometry": {
        "type": "Point",
        "coordinates": [
          144.014,
          43.405
        ]
      },
      "properties": {
        "都道府県": "北海道",
        "名称": "阿寒カルデラ",
        "地理的特徴・成り立ち": "複合カルデラ。雌阿寒岳・雄阿寒岳など後カルデラ火山と火山性湖沼を内包。",
        "地形タイプ": "火山地形",
        "植生": "高山・亜高山帯（ハイマツ・ダケカンバ）",
        "QC": "ok"
      }
    },
    {
      "type": "Feature",
      "geometry": {
        "type": "Point",
        "coordinates": [
          144.347,
          43.608
        ]
      },
      "properties": {
        "都道府県": "北海道",
        "名称": "屈斜路カルデラ",
        "地理的特徴・成り立ち": "東北海道最大級カルデラ。中央火口丘の摩周岳と湖底温泉活動。",
        "地形タイプ": "火山地形",
        "植生": "高山・亜高山帯（ハイマツ・ダケカンバ）",
        "QC": "ok"
      }
    },
    {
      "type": "Feature",
      "geometry": {
        "type": "Point",
        "coordinates": [
          144.563,
          43.566
        ]
      },
      "properties": {
        "都道府県": "北海道",
        "名称": "摩周湖",
        "地理的特徴・成り立ち": "爆裂火口に水が貯留した火口湖。透明度が非常に高い。",
        "地形タイプ": "その他",
        "植生": "落葉広葉樹林／草原モザイク",
        "QC": "ok"
      }
    },
    {
      "type": "Feature",
      "geometry": {
        "type": "Point",
        "coordinates": [
          143.959,
          44.176
        ]
      },
      "properties": {
        "都道府県": "北海道",
        "名称": "サロマ湖",
        "地理的特徴・成り立ち": "砂州により海から隔てられた潟湖。砂嘴発達と汽水環境が卓越。",
        "地形タイプ": "砂州・砂嘴",
        "植生": "塩性湿地・マングローブ・サンゴ礁",
        "QC": "ok"
      }
    },
    {
      "type": "Feature",
      "geometry": {
        "type": "Point",
        "coordinates": [
          145.35,
          43.568
        ]
      },
      "properties": {
        "都道府県": "北海道",
        "名称": "野付半島",
        "地理的特徴・成り立ち": "沿岸漂砂で発達した砂嘴性半島。堆積作用が卓越。",
        "地形タイプ": "砂州・砂嘴",
        "植生": "海浜植生（コウボウムギ・ハマヒルガオ）",
        "QC": "ok"
      }
    },
    {
      "type": "Feature",
      "geometry": {
        "type": "Point",
        "coordinates": [
          144.4,
          43.1
        ]
      },
      "properties": {
        "都道府県": "北海道",
        "名称": "釧路湿原",
        "地理的特徴・成り立ち": "河成低地の泥炭湿原。蛇行・氾濫の堆積と寒冷気候が形成を促進。",
        "地形タイプ": "氾濫原・低地",
        "植生": "ヨシ・アシ原／水田モザイク",
        "QC": "ok"
      }
    },
    {
      "type": "Feature",
      "geometry": {
        "type": "Point",
        "coordinates": [
          141.55,
          43.15
        ]
      },
      "properties": {
        "都道府県": "北海道",
        "名称": "石狩平野",
        "地理的特徴・成り立ち": "扇状地・三角州が複合する沖積平野。埋没谷と海成段丘が分布。",
        "地形タイプ": "扇状地",
        "植生": "ヨシ・アシ原／水田モザイク",
        "QC": "ok"
      }
    },
    {
      "type": "Feature",
      "geometry": {
        "type": "Point",
        "coordinates": [
          142.85,
          42.75
        ]
      },
      "properties": {
        "都道府県": "北海道",
        "名称": "日高山脈",
        "地理的特徴・成り立ち": "島弧衝突帯の褶曲・衝上帯。変成岩・蛇紋岩帯から成る隆起山脈。",
        "地形タイプ": "断層地形",
        "植生": "落葉広葉樹林／草原モザイク",
        "QC": "ok"
      }
    },
    {
      "type": "Feature",
      "geometry": {
        "type": "Point",
        "coordinates": [
          145.15,
          44.15
        ]
      },
      "properties": {
        "都道府県": "北海道",
        "名称": "知床半島",
        "地理的特徴・成り立ち": "火山活動と氷蝕で形成された半島。火山岩台地と氷食谷が発達。",
        "地形タイプ": "火山地形",
        "植生": "高山・亜高山帯（ハイマツ・ダケカンバ）",
        "QC": "ok"
      }
    },
    {
      "type": "Feature",
      "geometry": {
        "type": "Point",
        "coordinates": [
          144.167,
          44.067
        ]
      },
      "properties": {
        "都道府県": "北海道",
        "名称": "網走湖",
        "地理的特徴・成り立ち": "旧河口部が砂州で隔てられた潟湖。淡水と海水の混合域。",
        "地形タイプ": "砂州・砂嘴",
        "植生": "海浜植生（コウボウムギ・ハマヒルガオ）",
        "QC": "ok"
      }
    },
    {
      "type": "Feature",
      "geometry": {
        "type": "Point",
        "coordinates": [
          140.98,
          43.2
        ]
      },
      "properties": {
        "都道府県": "北海道",
        "名称": "小樽周辺海岸段丘",
        "地理的特徴・成り立ち": "更新世の海面変動で形成された海成段丘群。",
        "地形タイプ": "海岸段丘",
        "植生": "二次林（コナラ・アカマツ）",
        "QC": "ok"
      }
    },
    {
      "type": "Feature",
      "geometry": {
        "type": "Point",
        "coordinates": [
          141.38,
          42.85
        ]
      },
      "properties": {
        "都道府県": "北海道",
        "名称": "恵庭岳",
        "地理的特徴・成り立ち": "支笏カルデラ縁の後カルデラ火山。玄武岩〜安山岩質溶岩流が堆積。",
        "地形タイプ": "火山地形",
        "植生": "高山・亜高山帯（ハイマツ・ダケカンバ）",
        "QC": "ok"
      }
    },
    {
      "type": "Feature",
      "geometry": {
        "type": "Point",
        "coordinates": [
          141.65,
          43.95
        ]
      },
      "properties": {
        "都道府県": "北海道",
        "名称": "留萌丘陵",
        "地理的特徴・成り立ち": "新第三紀堆積岩の褶曲による丘陵。背斜・向斜構造が明瞭。",
        "地形タイプ": "その他",
        "植生": "落葉広葉樹林／草原モザイク",
        "QC": "ok"
      }
    },
    {
      "type": "Feature",
      "geometry": {
        "type": "Point",
        "coordinates": [
          140.516,
          43.366
        ]
      },
      "properties": {
        "都道府県": "北海道",
        "名称": "積丹半島",
        "地理的特徴・成り立ち": "海底火山起源の火山岩台地と海食崖。",
        "地形タイプ": "火山地形",
        "植生": "高山・亜高山帯（ハイマツ・ダケカンバ）",
        "QC": "ok"
      }
    },
    {
      "type": "Feature",
      "geometry": {
        "type": "Point",
        "coordinates": [
          141.04,
          45.29
        ]
      },
      "properties": {
        "都道府県": "北海道",
        "名称": "礼文島",
        "地理的特徴・成り立ち": "周氷河作用で発達した丘陵と岩屑地形。",
        "地形タイプ": "その他",
        "植生": "落葉広葉樹林／草原モザイク",
        "QC": "ok"
      }
    },
    {
      "type": "Feature",
      "geometry": {
        "type": "Point",
        "coordinates": [
          140.885,
          40.454
        ]
      },
      "properties": {
        "都道府県": "青森県",
        "名称": "十和田湖",
        "地理的特徴・成り立ち": "二重カルデラ湖。後カルデラ火山活動と火砕流堆積物上に湖盆が成立。",
        "地形タイプ": "火山地形",
        "植生": "高山・亜高山帯（ハイマツ・ダケカンバ）",
        "QC": "ok"
      }
    },
    {
      "type": "Feature",
      "geometry": {
        "type": "Point",
        "coordinates": [
          140.937,
          40.466
        ]
      },
      "properties": {
        "都道府県": "青森県",
        "名称": "奥入瀬渓流",
        "地理的特徴・成り立ち": "十和田カルデラ外縁を流れる河谷。溶岩台地・火砕流台地を刻む下刻と段丘形成。",
        "地形タイプ": "火山地形",
        "植生": "高山・亜高山帯（ハイマツ・ダケカンバ）",
        "QC": "ok"
      }
    },
    {
      "type": "Feature",
      "geometry": {
        "type": "Point",
        "coordinates": [
          140.879,
          40.654
        ]
      },
      "properties": {
        "都道府県": "青森県",
        "名称": "八甲田山",
        "地理的特徴・成り立ち": "複成火山群。圏谷状地形・湿原があり周氷河作用と火山性地形が複合。",
        "地形タイプ": "火山地形",
        "植生": "高山・亜高山帯（ハイマツ・ダケカンバ）",
        "QC": "ok"
      }
    },
    {
      "type": "Feature",
      "geometry": {
        "type": "Point",
        "coordinates": [
          140.14,
          40.548
        ]
      },
      "properties": {
        "都道府県": "青森県",
        "名称": "白神山地（青森側）",
        "地理的特徴・成り立ち": "中新世堆積岩の隆起山地。深い樹枝状谷と急崖性の崩壊地形。",
        "地形タイプ": "その他",
        "植生": "落葉広葉樹林／草原モザイク",
        "QC": "ok"
      }
    },
    {
      "type": "Feature",
      "geometry": {
        "type": "Point",
        "coordinates": [
          140.696,
          40.829
        ]
      },
      "properties": {
        "都道府県": "青森県",
        "名称": "三内丸山遺跡",
        "地理的特徴・成り立ち": "台地縁辺の微高地に立地した縄文集落。扇状地末端〜沖積低地の移行帯利用。",
        "地形タイプ": "扇状地",
        "植生": "ヨシ・アシ原／水田モザイク",
        "QC": "ok"
      }
    },
    {
      "type": "Feature",
      "geometry": {
        "type": "Point",
        "coordinates": [
          141.566,
          40.51
        ]
      },
      "properties": {
        "都道府県": "青森県",
        "名称": "種差海岸",
        "地理的特徴・成り立ち": "砂岩層の海食地形と海浜草原。波浪卓越の海食台・ベンチが発達。",
        "地形タイプ": "海食崖・波食台",
        "植生": "照葉樹林（シイ・タブ）",
        "QC": "ok"
      }
    },
    {
      "type": "Feature",
      "geometry": {
        "type": "Point",
        "coordinates": [
          140.352,
          41.247
        ]
      },
      "properties": {
        "都道府県": "青森県",
        "名称": "竜飛崎",
        "地理的特徴・成り立ち": "基盤岩の露出する海食崖地形。津軽海峡の潮流・強風の影響。",
        "地形タイプ": "リアス・沈水海岸",
        "植生": "照葉樹林（シイ・タブ）",
        "QC": "ok"
      }
    },
    {
      "type": "Feature",
      "geometry": {
        "type": "Point",
        "coordinates": [
          140.308,
          40.653
        ]
      },
      "properties": {
        "都道府県": "青森県",
        "名称": "岩木山",
        "地理的特徴・成り立ち": "成層火山。山麓に火山麓扇状地・同心円状段丘。",
        "地形タイプ": "火山地形",
        "植生": "高山・亜高山帯（ハイマツ・ダケカンバ）",
        "QC": "ok"
      }
    },
    {
      "type": "Feature",
      "geometry": {
        "type": "Point",
        "coordinates": [
          141.314,
          40.705
        ]
      },
      "properties": {
        "都道府県": "青森県",
        "名称": "小川原湖",
        "地理的特徴・成り立ち": "砂州で隔てられた潟湖。砂嘴発達と汽水環境。",
        "地形タイプ": "砂州・砂嘴",
        "植生": "塩性湿地・マングローブ・サンゴ礁",
        "QC": "ok"
      }
    },
    {
      "type": "Feature",
      "geometry": {
        "type": "Point",
        "coordinates": [
          141.05,
          41.354
        ]
      },
      "properties": {
        "都道府県": "青森県",
        "名称": "仏ヶ浦",
        "地理的特徴・成り立ち": "凝灰岩の選択的侵食で形成された海食奇岩群。",
        "地形タイプ": "海食崖・波食台",
        "植生": "照葉樹林（シイ・タブ）",
        "QC": "ok"
      }
    },
    {
      "type": "Feature",
      "geometry": {
        "type": "Point",
        "coordinates": [
          140.754,
          40.955
        ]
      },
      "properties": {
        "都道府県": "青森県",
        "名称": "陸奥湾（七里長浜）",
        "地理的特徴・成り立ち": "半閉鎖性内湾。内湾堆積が卓越し砂嘴・干潟が発達。",
        "地形タイプ": "砂州・砂嘴",
        "植生": "塩性湿地・マングローブ・サンゴ礁",
        "QC": "ok"
      }
    },
    {
      "type": "Feature",
      "geometry": {
        "type": "Point",
        "coordinates": [
          140.592,
          40.652
        ]
      },
      "properties": {
        "都道府県": "青森県",
        "名称": "猿賀沼・平川扇状地",
        "地理的特徴・成り立ち": "岩木山南麓の扇状地上の沼沢地。湧水帯と泥炭層が発達。",
        "地形タイプ": "扇状地",
        "植生": "湧水周辺の湿生群落",
        "QC": "ok"
      }
    },
    {
      "type": "Feature",
      "geometry": {
        "type": "Point",
        "coordinates": [
          139.983,
          40.5485
        ]
      },
      "properties": {
        "都道府県": "青森県",
        "名称": "十二湖（ブナ林）",
        "地理的特徴・成り立ち": "崩壊で谷が堰き止められた小湖群。周氷河性地形の名残。",
        "地形タイプ": "その他",
        "植生": "落葉広葉樹林／草原モザイク",
        "QC": "ok"
      }
    },
    {
      "type": "Feature",
      "geometry": {
        "type": "Point",
        "coordinates": [
          140.678,
          41.034
        ]
      },
      "properties": {
        "都道府県": "青森県",
        "名称": "平舘海峡・蟹田湾",
        "地理的特徴・成り立ち": "湾口狭窄域で潮流・波浪が強い。砂州・砂嘴と海食崖が共存。",
        "地形タイプ": "砂州・砂嘴",
        "植生": "海浜植生（コウボウムギ・ハマヒルガオ）",
        "QC": "ok"
      }
    },
    {
      "type": "Feature",
      "geometry": {
        "type": "Point",
        "coordinates": [
          141.162,
          40.71
        ]
      },
      "properties": {
        "都道府県": "青森県",
        "名称": "七戸台地",
        "地理的特徴・成り立ち": "第四紀堆積物の台地。旧河道・埋没谷が分布。",
        "地形タイプ": "台地",
        "植生": "二次林（コナラ・アカマツ）",
        "QC": "ok"
      }
    },
    {
      "type": "Feature",
      "geometry": {
        "type": "Point",
        "coordinates": [
          140.53,
          40.466
        ]
      },
      "properties": {
        "都道府県": "青森県",
        "名称": "碇ヶ関（津軽南部山地）",
        "地理的特徴・成り立ち": "褶曲山地に刻入する谷。箱形谷と急崖が連続。",
        "地形タイプ": "その他",
        "植生": "落葉広葉樹林／草原モザイク",
        "QC": "ok"
      }
    },
    {
      "type": "Feature",
      "geometry": {
        "type": "Point",
        "coordinates": [
          140.95,
          40.995
        ]
      },
      "properties": {
        "都道府県": "青森県",
        "名称": "夏泊半島",
        "地理的特徴・成り立ち": "花崗岩質基盤の半島。海食棚と巨礫海岸。",
        "地形タイプ": "海食崖・波食台",
        "植生": "照葉樹林（シイ・タブ）",
        "QC": "ok"
      }
    },
    {
      "type": "Feature",
      "geometry": {
        "type": "Point",
        "coordinates": [
          140.207,
          40.879
        ]
      },
      "properties": {
        "都道府県": "青森県",
        "名称": "十三湖・岩木川河口",
        "地理的特徴・成り立ち": "砂州で隔てられた潟湖。砂嘴発達と河口移動が顕著。",
        "地形タイプ": "砂州・砂嘴",
        "植生": "海浜植生（コウボウムギ・ハマヒルガオ）",
        "QC": "ok"
      }
    },
    {
      "type": "Feature",
      "geometry": {
        "type": "Point",
        "coordinates": [
          141.468,
          41.432
        ]
      },
      "properties": {
        "都道府県": "青森県",
        "名称": "尻屋崎",
        "地理的特徴・成り立ち": "海食が卓越する岬。周辺に海成段丘が発達。",
        "地形タイプ": "段丘",
        "植生": "照葉樹林（シイ・タブ）",
        "QC": "ok"
      }
    },
    {
      "type": "Feature",
      "geometry": {
        "type": "Point",
        "coordinates": [
          141.125,
          41.3
        ]
      },
      "properties": {
        "都道府県": "青森県",
        "名称": "恐山（外輪山）",
        "地理的特徴・成り立ち": "カルデラ性地形と硫黄泉噴出の火山地帯。爆裂火口と温泉沈殿物が分布。",
        "地形タイプ": "火山地形",
        "植生": "高山・亜高山帯（ハイマツ・ダケカンバ）",
        "QC": "ok"
      }
    },
    {
      "type": "Feature",
      "geometry": {
        "type": "Point",
        "coordinates": [
          140.854,
          39.957
        ]
      },
      "properties": {
        "都道府県": "岩手県",
        "名称": "八幡平",
        "地理的特徴・成り立ち": "火山性高原。溶岩台地と火砕流堆積物が層状。",
        "地形タイプ": "火山地形",
        "植生": "高山・亜高山帯（ハイマツ・ダケカンバ）",
        "QC": "ok"
      }
    },
    {
      "type": "Feature",
      "geometry": {
        "type": "Point",
        "coordinates": [
          141.0,
          39.85
        ]
      },
      "properties": {
        "都道府県": "岩手県",
        "名称": "岩手山",
        "地理的特徴・成り立ち": "安山岩質成層火山。山体崩壊と扇状地発達。",
        "地形タイプ": "火山地形",
        "植生": "高山・亜高山帯（ハイマツ・ダケカンバ）",
        "QC": "ok"
      }
    },
    {
      "type": "Feature",
      "geometry": {
        "type": "Point",
        "coordinates": [
          140.983,
          39.7
        ]
      },
      "properties": {
        "都道府県": "岩手県",
        "名称": "雫石盆地",
        "地理的特徴・成り立ち": "沈降性盆地。火山性堆積物上に扇状地が展開。",
        "地形タイプ": "火山地形",
        "植生": "高山・亜高山帯（ハイマツ・ダケカンバ）",
        "QC": "ok"
      }
    },
    {
      "type": "Feature",
      "geometry": {
        "type": "Point",
        "coordinates": [
          141.152,
          39.703
        ]
      },
      "properties": {
        "都道府県": "岩手県",
        "名称": "盛岡扇状地",
        "地理的特徴・成り立ち": "合流扇状地。段丘発達と地盤傾動。",
        "地形タイプ": "扇状地",
        "植生": "湧水周辺の湿生群落",
        "QC": "ok"
      }
    },
    {
      "type": "Feature",
      "geometry": {
        "type": "Point",
        "coordinates": [
          141.128,
          39.23
        ]
      },
      "properties": {
        "都道府県": "岩手県",
        "名称": "北上川下流平野",
        "地理的特徴・成り立ち": "沖積平野。自然堤防・後背湿地が発達。",
        "地形タイプ": "氾濫原・低地",
        "植生": "ヨシ・アシ原／水田モザイク",
        "QC": "ok"
      }
    },
    {
      "type": "Feature",
      "geometry": {
        "type": "Point",
        "coordinates": [
          141.98,
          39.65
        ]
      },
      "properties": {
        "都道府県": "岩手県",
        "名称": "三陸リアス海岸（宮古湾）",
        "地理的特徴・成り立ち": "沈水谷のリアス海岸。波浪侵食で湾形が深化。",
        "地形タイプ": "リアス・沈水海岸",
        "植生": "照葉樹林（シイ・タブ）",
        "QC": "ok"
      }
    },
    {
      "type": "Feature",
      "geometry": {
        "type": "Point",
        "coordinates": [
          141.955,
          39.465
        ]
      },
      "properties": {
        "都道府県": "岩手県",
        "名称": "山田湾",
        "地理的特徴・成り立ち": "溺谷湾。静穏な内湾堆積が卓越。",
        "地形タイプ": "リアス・沈水海岸",
        "植生": "照葉樹林（シイ・タブ）",
        "QC": "ok"
      }
    },
    {
      "type": "Feature",
      "geometry": {
        "type": "Point",
        "coordinates": [
          141.881,
          39.276
        ]
      },
      "properties": {
        "都道府県": "岩手県",
        "名称": "釜石鉱山地域",
        "地理的特徴・成り立ち": "スカルン鉱床を伴う変質帯。北上帯の代表例。",
        "地形タイプ": "その他",
        "植生": "落葉広葉樹林／草原モザイク",
        "QC": "ok"
      }
    },
    {
      "type": "Feature",
      "geometry": {
        "type": "Point",
        "coordinates": [
          141.12,
          39.14
        ]
      },
      "properties": {
        "都道府県": "岩手県",
        "名称": "胆沢扇状地",
        "地理的特徴・成り立ち": "大型扇状地。胆沢川の土砂供給で発達。",
        "地形タイプ": "扇状地",
        "植生": "湧水周辺の湿生群落",
        "QC": "ok"
      }
    },
    {
      "type": "Feature",
      "geometry": {
        "type": "Point",
        "coordinates": [
          141.133,
          39.133
        ]
      },
      "properties": {
        "都道府県": "岩手県",
        "名称": "水沢盆地",
        "地理的特徴・成り立ち": "堆積盆地。段丘発達と厚い沖積粘土層。",
        "地形タイプ": "段丘",
        "植生": "二次林（コナラ・アカマツ）",
        "QC": "ok"
      }
    },
    {
      "type": "Feature",
      "geometry": {
        "type": "Point",
        "coordinates": [
          141.7,
          40.0
        ]
      },
      "properties": {
        "都道府県": "岩手県",
        "名称": "安家洞",
        "地理的特徴・成り立ち": "石灰岩のカルスト鍾乳洞。溶食地形。",
        "地形タイプ": "カルスト",
        "植生": "石灰岩地性草原（ススキ等）",
        "QC": "ok"
      }
    },
    {
      "type": "Feature",
      "geometry": {
        "type": "Point",
        "coordinates": [
          141.75,
          40.2
        ]
      },
      "properties": {
        "都道府県": "岩手県",
        "名称": "久慈海岸",
        "地理的特徴・成り立ち": "隆起海岸。海食崖と海成段丘が発達。",
        "地形タイプ": "段丘",
        "植生": "照葉樹林（シイ・タブ）",
        "QC": "ok"
      }
    },
    {
      "type": "Feature",
      "geometry": {
        "type": "Point",
        "coordinates": [
          141.333,
          40.283
        ]
      },
      "properties": {
        "都道府県": "岩手県",
        "名称": "折爪岳",
        "地理的特徴・成り立ち": "花崗岩質隆起山地。周氷河性岩塊流が分布。",
        "地形タイプ": "花崗岩侵食地形",
        "植生": "落葉広葉樹林／草原モザイク",
        "QC": "ok"
      }
    },
    {
      "type": "Feature",
      "geometry": {
        "type": "Point",
        "coordinates": [
          141.533,
          39.333
        ]
      },
      "properties": {
        "都道府県": "岩手県",
        "名称": "遠野盆地",
        "地理的特徴・成り立ち": "断層性構造盆地。河成段丘と扇状地の複合。",
        "地形タイプ": "扇状地",
        "植生": "湧水周辺の湿生群落",
        "QC": "ok"
      }
    },
    {
      "type": "Feature",
      "geometry": {
        "type": "Point",
        "coordinates": [
          141.416,
          39.366
        ]
      },
      "properties": {
        "都道府県": "岩手県",
        "名称": "宮守渓谷",
        "地理的特徴・成り立ち": "花崗岩の節理に沿う峡谷。線状谷。",
        "地形タイプ": "花崗岩侵食地形",
        "植生": "落葉広葉樹林／草原モザイク",
        "QC": "ok"
      }
    },
    {
      "type": "Feature",
      "geometry": {
        "type": "Point",
        "coordinates": [
          141.118,
          38.987
        ]
      },
      "properties": {
        "都道府県": "岩手県",
        "名称": "平泉（北上川段丘）",
        "地理的特徴・成り立ち": "段丘上の平地。堆積速度変化が記録。",
        "地形タイプ": "段丘",
        "植生": "二次林（コナラ・アカマツ）",
        "QC": "ok"
      }
    },
    {
      "type": "Feature",
      "geometry": {
        "type": "Point",
        "coordinates": [
          141.592,
          39.083
        ]
      },
      "properties": {
        "都道府県": "岩手県",
        "名称": "猊鼻渓",
        "地理的特徴・成り立ち": "石灰岩の侵食峡谷。垂直崖が連続。",
        "地形タイプ": "カルスト",
        "植生": "石灰岩地性草原（ススキ等）",
        "QC": "ok"
      }
    },
    {
      "type": "Feature",
      "geometry": {
        "type": "Point",
        "coordinates": [
          141.73,
          39.07
        ]
      },
      "properties": {
        "都道府県": "岩手県",
        "名称": "大船渡湾",
        "地理的特徴・成り立ち": "沈水谷の湾入地形。堆積と波浪侵食のバランス。",
        "地形タイプ": "リアス・沈水海岸",
        "植生": "照葉樹林（シイ・タブ）",
        "QC": "ok"
      }
    },
    {
      "type": "Feature",
      "geometry": {
        "type": "Point",
        "coordinates": [
          141.709,
          39.163
        ]
      },
      "properties": {
        "都道府県": "岩手県",
        "名称": "五葉山",
        "地理的特徴・成り立ち": "変成岩質山地。周氷河性岩屑地形。",
        "地形タイプ": "その他",
        "植生": "落葉広葉樹林／草原モザイク",
        "QC": "ok"
      }
    },
    {
      "type": "Feature",
      "geometry": {
        "type": "Point",
        "coordinates": [
          141.541,
          39.011
        ]
      },
      "properties": {
        "都道府県": "岩手県",
        "名称": "気仙沼断層帯北縁",
        "地理的特徴・成り立ち": "奥羽変動帯南端の活断層系。第四紀右横ずれ変位。",
        "地形タイプ": "断層地形",
        "植生": "落葉広葉樹林／草原モザイク",
        "QC": "ok"
      }
    },
    {
      "type": "Feature",
      "geometry": {
        "type": "Point",
        "coordinates": [
          139.85,
          39.95
        ]
      },
      "properties": {
        "都道府県": "秋田県",
        "名称": "男鹿半島",
        "地理的特徴・成り立ち": "新第三紀火山岩類の半島。海食と隆起で海岸段丘が発達。",
        "地形タイプ": "火山地形",
        "植生": "高山・亜高山帯（ハイマツ・ダケカンバ）",
        "QC": "ok"
      }
    },
    {
      "type": "Feature",
      "geometry": {
        "type": "Point",
        "coordinates": [
          140.05,
          39.1
        ]
      },
      "properties": {
        "都道府県": "秋田県",
        "名称": "鳥海山",
        "地理的特徴・成り立ち": "安山岩質成層火山。氷河圏谷・溶岩円頂丘を伴う。",
        "地形タイプ": "火山地形",
        "植生": "高山・亜高山帯（ハイマツ・ダケカンバ）",
        "QC": "ok"
      }
    },
    {
      "type": "Feature",
      "geometry": {
        "type": "Point",
        "coordinates": [
          140.688,
          39.713
        ]
      },
      "properties": {
        "都道府県": "秋田県",
        "名称": "田沢湖",
        "地理的特徴・成り立ち": "カルデラ性の深い湖盆。火山性陥没に由来。",
        "地形タイプ": "火山地形",
        "植生": "高山・亜高山帯（ハイマツ・ダケカンバ）",
        "QC": "ok"
      }
    },
    {
      "type": "Feature",
      "geometry": {
        "type": "Point",
        "coordinates": [
          140.09,
          39.716
        ]
      },
      "properties": {
        "都道府県": "秋田県",
        "名称": "秋田平野",
        "地理的特徴・成り立ち": "扇状地性沖積平野。海進・海退で埋没段丘構造。",
        "地形タイプ": "扇状地",
        "植生": "湧水周辺の湿生群落",
        "QC": "ok"
      }
    },
    {
      "type": "Feature",
      "geometry": {
        "type": "Point",
        "coordinates": [
          140.0,
          40.0
        ]
      },
      "properties": {
        "都道府県": "秋田県",
        "名称": "八郎潟干拓地",
        "地理的特徴・成り立ち": "潟湖の干拓地。完新世堆積の記録が豊富。",
        "地形タイプ": "干潟・干拓低地",
        "植生": "塩性湿地・マングローブ・サンゴ礁",
        "QC": "ok"
      }
    },
    {
      "type": "Feature",
      "geometry": {
        "type": "Point",
        "coordinates": [
          140.0,
          40.38
        ]
      },
      "properties": {
        "都道府県": "秋田県",
        "名称": "白神山地（秋田側）",
        "地理的特徴・成り立ち": "新第三紀堆積岩の隆起山地。急峻な谷と崩壊地形。",
        "地形タイプ": "その他",
        "植生": "落葉広葉樹林／草原モザイク",
        "QC": "ok"
      }
    },
    {
      "type": "Feature",
      "geometry": {
        "type": "Point",
        "coordinates": [
          140.56,
          40.27
        ]
      },
      "properties": {
        "都道府県": "秋田県",
        "名称": "大館盆地",
        "地理的特徴・成り立ち": "構造性陥没盆地。厚い火山灰・粘土層が堆積。",
        "地形タイプ": "火山地形",
        "植生": "高山・亜高山帯（ハイマツ・ダケカンバ）",
        "QC": "ok"
      }
    },
    {
      "type": "Feature",
      "geometry": {
        "type": "Point",
        "coordinates": [
          140.05,
          40.19
        ]
      },
      "properties": {
        "都道府県": "秋田県",
        "名称": "能代扇状地",
        "地理的特徴・成り立ち": "米代川下流の大型扇状地。礫層主体。",
        "地形タイプ": "扇状地",
        "植生": "湧水周辺の湿生群落",
        "QC": "ok"
      }
    },
    {
      "type": "Feature",
      "geometry": {
        "type": "Point",
        "coordinates": [
          140.46,
          39.175
        ]
      },
      "properties": {
        "都道府県": "秋田県",
        "名称": "湯沢盆地",
        "地理的特徴・成り立ち": "活断層に規制された沈降盆地。非対称構造。",
        "地形タイプ": "断層地形",
        "植生": "落葉広葉樹林／草原モザイク",
        "QC": "ok"
      }
    },
    {
      "type": "Feature",
      "geometry": {
        "type": "Point",
        "coordinates": [
          140.771,
          39.976
        ]
      },
      "properties": {
        "都道府県": "秋田県",
        "名称": "玉川温泉",
        "地理的特徴・成り立ち": "強酸性の地熱地帯。硫気孔・沈殿鉱床が発達。",
        "地形タイプ": "その他",
        "植生": "落葉広葉樹林／草原モザイク",
        "QC": "ok"
      }
    },
    {
      "type": "Feature",
      "geometry": {
        "type": "Point",
        "coordinates": [
          140.676,
          39.959
        ]
      },
      "properties": {
        "都道府県": "秋田県",
        "名称": "森吉山",
        "地理的特徴・成り立ち": "複成火山。周囲に火砕流堆積物。",
        "地形タイプ": "火山地形",
        "植生": "高山・亜高山帯（ハイマツ・ダケカンバ）",
        "QC": "ok"
      }
    },
    {
      "type": "Feature",
      "geometry": {
        "type": "Point",
        "coordinates": [
          140.33,
          40.213
        ]
      },
      "properties": {
        "都道府県": "秋田県",
        "名称": "鷹巣盆地",
        "地理的特徴・成り立ち": "河成堆積盆地。洪積段丘が発達。",
        "地形タイプ": "段丘",
        "植生": "二次林（コナラ・アカマツ）",
        "QC": "ok"
      }
    },
    {
      "type": "Feature",
      "geometry": {
        "type": "Point",
        "coordinates": [
          139.894,
          39.944
        ]
      },
      "properties": {
        "都道府県": "秋田県",
        "名称": "男鹿真山・本山",
        "地理的特徴・成り立ち": "古期火山岩の双峰。侵食で内部構造露出。",
        "地形タイプ": "火山地形",
        "植生": "高山・亜高山帯（ハイマツ・ダケカンバ）",
        "QC": "ok"
      }
    },
    {
      "type": "Feature",
      "geometry": {
        "type": "Point",
        "coordinates": [
          139.977,
          39.181
        ]
      },
      "properties": {
        "都道府県": "秋田県",
        "名称": "象潟（九十九島）",
        "地理的特徴・成り立ち": "1804年の地震隆起で現れた旧潟湖地形。",
        "地形タイプ": "その他",
        "植生": "落葉広葉樹林／草原モザイク",
        "QC": "ok"
      }
    },
    {
      "type": "Feature",
      "geometry": {
        "type": "Point",
        "coordinates": [
          140.56,
          39.313
        ]
      },
      "properties": {
        "都道府県": "秋田県",
        "名称": "横手盆地",
        "地理的特徴・成り立ち": "構造盆地。周縁断層の変位が明瞭。",
        "地形タイプ": "断層地形",
        "植生": "落葉広葉樹林／草原モザイク",
        "QC": "ok"
      }
    },
    {
      "type": "Feature",
      "geometry": {
        "type": "Point",
        "coordinates": [
          140.183,
          39.89
        ]
      },
      "properties": {
        "都道府県": "秋田県",
        "名称": "五城目丘陵",
        "地理的特徴・成り立ち": "新第三紀堆積岩の褶曲・断層による丘陵。",
        "地形タイプ": "断層地形",
        "植生": "落葉広葉樹林／草原モザイク",
        "QC": "ok"
      }
    },
    {
      "type": "Feature",
      "geometry": {
        "type": "Point",
        "coordinates": [
          140.58,
          39.93
        ]
      },
      "properties": {
        "都道府県": "秋田県",
        "名称": "阿仁鉱山地域",
        "地理的特徴・成り立ち": "古第三紀火山活動に伴う熱水鉱床。",
        "地形タイプ": "火山地形",
        "植生": "高山・亜高山帯（ハイマツ・ダケカンバ）",
        "QC": "ok"
      }
    },
    {
      "type": "Feature",
      "geometry": {
        "type": "Point",
        "coordinates": [
          140.04,
          39.38
        ]
      },
      "properties": {
        "都道府県": "秋田県",
        "名称": "本荘平野",
        "地理的特徴・成り立ち": "子吉川の三角州性沖積平野。",
        "地形タイプ": "三角州",
        "植生": "ヨシ・アシ原／水田モザイク",
        "QC": "ok"
      }
    },
    {
      "type": "Feature",
      "geometry": {
        "type": "Point",
        "coordinates": [
          139.972,
          39.195
        ]
      },
      "properties": {
        "都道府県": "秋田県",
        "名称": "仁賀保高原",
        "地理的特徴・成り立ち": "鳥海火山の溶岩流台地上の高原。",
        "地形タイプ": "火山地形",
        "植生": "高山・亜高山帯（ハイマツ・ダケカンバ）",
        "QC": "ok"
      }
    },
    {
      "type": "Feature",
      "geometry": {
        "type": "Point",
        "coordinates": [
          140.56,
          39.98
        ]
      },
      "properties": {
        "都道府県": "秋田県",
        "名称": "阿仁合構造帯",
        "地理的特徴・成り立ち": "横ずれ断層帯。剪断帯構造が顕著。",
        "地形タイプ": "断層地形",
        "植生": "落葉広葉樹林／草原モザイク",
        "QC": "ok"
      }
    },
    {
      "type": "Feature",
      "geometry": {
        "type": "Point",
        "coordinates": [
          140.448,
          38.139
        ]
      },
      "properties": {
        "都道府県": "宮城県",
        "名称": "蔵王火山",
        "地理的特徴・成り立ち": "成層火山群。爆裂火口とカルデラ性陥没。",
        "地形タイプ": "火山地形",
        "植生": "高山・亜高山帯（ハイマツ・ダケカンバ）",
        "QC": "ok"
      }
    },
    {
      "type": "Feature",
      "geometry": {
        "type": "Point",
        "coordinates": [
          141.1,
          38.695
        ]
      },
      "properties": {
        "都道府県": "宮城県",
        "名称": "伊豆沼・内沼",
        "地理的特徴・成り立ち": "氾濫原の湖沼群。湧水帯と自然堤防の発達。",
        "地形タイプ": "氾濫原・低地",
        "植生": "ヨシ・アシ原／水田モザイク",
        "QC": "ok"
      }
    },
    {
      "type": "Feature",
      "geometry": {
        "type": "Point",
        "coordinates": [
          141.061,
          38.374
        ]
      },
      "properties": {
        "都道府県": "宮城県",
        "名称": "松島湾",
        "地理的特徴・成り立ち": "沈水谷と島嶼の多島海岸。中新世堆積岩の海食。",
        "地形タイプ": "リアス・沈水海岸",
        "植生": "照葉樹林（シイ・タブ）",
        "QC": "ok"
      }
    },
    {
      "type": "Feature",
      "geometry": {
        "type": "Point",
        "coordinates": [
          140.89,
          38.26
        ]
      },
      "properties": {
        "都道府県": "宮城県",
        "名称": "仙台平野",
        "地理的特徴・成り立ち": "扇状地性沖積平野。旧汀線段丘が明瞭。",
        "地形タイプ": "扇状地",
        "植生": "湧水周辺の湿生群落",
        "QC": "ok"
      }
    },
    {
      "type": "Feature",
      "geometry": {
        "type": "Point",
        "coordinates": [
          141.38,
          38.42
        ]
      },
      "properties": {
        "都道府県": "宮城県",
        "名称": "石巻湾",
        "地理的特徴・成り立ち": "溺谷湾。津波堆積層の研究地。",
        "地形タイプ": "リアス・沈水海岸",
        "植生": "照葉樹林（シイ・タブ）",
        "QC": "ok"
      }
    },
    {
      "type": "Feature",
      "geometry": {
        "type": "Point",
        "coordinates": [
          141.584,
          38.909
        ]
      },
      "properties": {
        "都道府県": "宮城県",
        "名称": "気仙沼湾",
        "地理的特徴・成り立ち": "沈水谷によるリアス地形。",
        "地形タイプ": "リアス・沈水海岸",
        "植生": "照葉樹林（シイ・タブ）",
        "QC": "ok"
      }
    },
    {
      "type": "Feature",
      "geometry": {
        "type": "Point",
        "coordinates": [
          140.786,
          38.96
        ]
      },
      "properties": {
        "都道府県": "宮城県",
        "名称": "栗駒山",
        "地理的特徴・成り立ち": "複成火山。火砕流・ラハール堆積が広がる。",
        "地形タイプ": "火山地形",
        "植生": "高山・亜高山帯（ハイマツ・ダケカンバ）",
        "QC": "ok"
      }
    },
    {
      "type": "Feature",
      "geometry": {
        "type": "Point",
        "coordinates": [
          140.7,
          38.75
        ]
      },
      "properties": {
        "都道府県": "宮城県",
        "名称": "鳴子カルデラ",
        "地理的特徴・成り立ち": "火砕流噴火で形成の陥没カルデラ。中央に地熱活動域。",
        "地形タイプ": "火山地形",
        "植生": "高山・亜高山帯（ハイマツ・ダケカンバ）",
        "QC": "ok"
      }
    },
    {
      "type": "Feature",
      "geometry": {
        "type": "Point",
        "coordinates": [
          141.08,
          38.42
        ]
      },
      "properties": {
        "都道府県": "宮城県",
        "名称": "鳴瀬川下流扇状地",
        "地理的特徴・成り立ち": "扇状地〜三角州が連続的に発達。",
        "地形タイプ": "扇状地",
        "植生": "ヨシ・アシ原／水田モザイク",
        "QC": "ok"
      }
    },
    {
      "type": "Feature",
      "geometry": {
        "type": "Point",
        "coordinates": [
          141.5,
          38.7
        ]
      },
      "properties": {
        "都道府県": "宮城県",
        "名称": "南三陸海岸",
        "地理的特徴・成り立ち": "連続するリアス海岸。段丘面高度差が隆起を示す。",
        "地形タイプ": "段丘",
        "植生": "照葉樹林（シイ・タブ）",
        "QC": "ok"
      }
    },
    {
      "type": "Feature",
      "geometry": {
        "type": "Point",
        "coordinates": [
          140.9,
          37.95
        ]
      },
      "properties": {
        "都道府県": "宮城県",
        "名称": "亘理・山元沿岸",
        "地理的特徴・成り立ち": "沿岸漂砂卓越の砂浜海岸。津波浸水地形の復元。",
        "地形タイプ": "その他",
        "植生": "落葉広葉樹林／草原モザイク",
        "QC": "ok"
      }
    },
    {
      "type": "Feature",
      "geometry": {
        "type": "Point",
        "coordinates": [
          141.0,
          38.25
        ]
      },
      "properties": {
        "都道府県": "宮城県",
        "名称": "仙台湾北部干潟",
        "地理的特徴・成り立ち": "潮汐流と河川供給の相互作用による堆積干潟。",
        "地形タイプ": "干潟・干拓低地",
        "植生": "塩性湿地・マングローブ・サンゴ礁",
        "QC": "ok"
      }
    },
    {
      "type": "Feature",
      "geometry": {
        "type": "Point",
        "coordinates": [
          140.95,
          38.33
        ]
      },
      "properties": {
        "都道府県": "宮城県",
        "名称": "七北田川扇状地",
        "地理的特徴・成り立ち": "礫質厚大の扇状地。地下水涵養帯。",
        "地形タイプ": "扇状地",
        "植生": "湧水周辺の湿生群落",
        "QC": "ok"
      }
    },
    {
      "type": "Feature",
      "geometry": {
        "type": "Point",
        "coordinates": [
          141.3,
          38.44
        ]
      },
      "properties": {
        "都道府県": "宮城県",
        "名称": "石巻平野",
        "地理的特徴・成り立ち": "旧河道・自然堤防・後背湿地が明瞭。",
        "地形タイプ": "氾濫原・低地",
        "植生": "ヨシ・アシ原／水田モザイク",
        "QC": "ok"
      }
    },
    {
      "type": "Feature",
      "geometry": {
        "type": "Point",
        "coordinates": [
          140.719,
          38.723
        ]
      },
      "properties": {
        "都道府県": "宮城県",
        "名称": "鳴子峡",
        "地理的特徴・成り立ち": "火砕流堆積物の峡谷。柱状節理が顕著。",
        "地形タイプ": "火山地形",
        "植生": "高山・亜高山帯（ハイマツ・ダケカンバ）",
        "QC": "ok"
      }
    },
    {
      "type": "Feature",
      "geometry": {
        "type": "Point",
        "coordinates": [
          141.567,
          38.3
        ]
      },
      "properties": {
        "都道府県": "宮城県",
        "名称": "金華山",
        "地理的特徴・成り立ち": "花崗岩質の孤島。海食崖と波蝕台。",
        "地形タイプ": "海食崖・波食台",
        "植生": "照葉樹林（シイ・タブ）",
        "QC": "ok"
      }
    },
    {
      "type": "Feature",
      "geometry": {
        "type": "Point",
        "coordinates": [
          140.625,
          38.001
        ]
      },
      "properties": {
        "都道府県": "宮城県",
        "名称": "白石盆地",
        "地理的特徴・成り立ち": "沈降性構造盆地。火山灰層を挟在。",
        "地形タイプ": "火山地形",
        "植生": "高山・亜高山帯（ハイマツ・ダケカンバ）",
        "QC": "ok"
      }
    },
    {
      "type": "Feature",
      "geometry": {
        "type": "Point",
        "coordinates": [
          140.63,
          38.347
        ]
      },
      "properties": {
        "都道府県": "宮城県",
        "名称": "作並温泉峡谷",
        "地理的特徴・成り立ち": "花崗岩体の断層破砕帯に沿う峡谷。",
        "地形タイプ": "断層地形",
        "植生": "落葉広葉樹林／草原モザイク",
        "QC": "ok"
      }
    },
    {
      "type": "Feature",
      "geometry": {
        "type": "Point",
        "coordinates": [
          141.48,
          38.44
        ]
      },
      "properties": {
        "都道府県": "宮城県",
        "名称": "女川湾",
        "地理的特徴・成り立ち": "沈水谷湾。津波堆積と完新世貝層が重なる。",
        "地形タイプ": "リアス・沈水海岸",
        "植生": "照葉樹林（シイ・タブ）",
        "QC": "ok"
      }
    },
    {
      "type": "Feature",
      "geometry": {
        "type": "Point",
        "coordinates": [
          140.89,
          38.175
        ]
      },
      "properties": {
        "都道府県": "宮城県",
        "名称": "名取川下流湿地",
        "地理的特徴・成り立ち": "河口デルタの湿地。海退過程の泥炭層。",
        "地形タイプ": "三角州",
        "植生": "ヨシ・アシ原／水田モザイク",
        "QC": "ok"
      }
    },
    {
      "type": "Feature",
      "geometry": {
        "type": "Point",
        "coordinates": [
          140.025,
          38.548
        ]
      },
      "properties": {
        "都道府県": "山形県",
        "名称": "月山",
        "地理的特徴・成り立ち": "第四紀成層火山。氷期の圏谷・モレーンが発達。",
        "地形タイプ": "火山地形",
        "植生": "高山・亜高山帯（ハイマツ・ダケカンバ）",
        "QC": "ok"
      }
    },
    {
      "type": "Feature",
      "geometry": {
        "type": "Point",
        "coordinates": [
          139.995,
          38.7
        ]
      },
      "properties": {
        "都道府県": "山形県",
        "名称": "羽黒山",
        "地理的特徴・成り立ち": "玄武岩質溶岩台地上に形成。段丘堆積層との不整合。",
        "地形タイプ": "火山地形",
        "植生": "高山・亜高山帯（ハイマツ・ダケカンバ）",
        "QC": "ok"
      }
    },
    {
      "type": "Feature",
      "geometry": {
        "type": "Point",
        "coordinates": [
          140.048,
          38.558
        ]
      },
      "properties": {
        "都道府県": "山形県",
        "名称": "湯殿山",
        "地理的特徴・成り立ち": "月山火山複合体の南翼。爆裂火口跡・溶岩ドーム群。",
        "地形タイプ": "火山地形",
        "植生": "高山・亜高山帯（ハイマツ・ダケカンバ）",
        "QC": "ok"
      }
    },
    {
      "type": "Feature",
      "geometry": {
        "type": "Point",
        "coordinates": [
          139.848,
          38.416
        ]
      },
      "properties": {
        "都道府県": "山形県",
        "名称": "最上川下流平野",
        "地理的特徴・成り立ち": "三角州性沖積平野。自然堤防・後背湿地が帯状に分布。",
        "地形タイプ": "三角州",
        "植生": "ヨシ・アシ原／水田モザイク",
        "QC": "ok"
      }
    },
    {
      "type": "Feature",
      "geometry": {
        "type": "Point",
        "coordinates": [
          139.86,
          38.8
        ]
      },
      "properties": {
        "都道府県": "山形県",
        "名称": "庄内平野",
        "地理的特徴・成り立ち": "扇状地性沖積平野。沖積層下に厚い洪積層。",
        "地形タイプ": "扇状地",
        "植生": "湧水周辺の湿生群落",
        "QC": "ok"
      }
    },
    {
      "type": "Feature",
      "geometry": {
        "type": "Point",
        "coordinates": [
          139.835,
          38.897
        ]
      },
      "properties": {
        "都道府県": "山形県",
        "名称": "酒田砂丘",
        "地理的特徴・成り立ち": "沿岸漂砂で形成の砂丘列。古砂丘列が内陸側に発達。",
        "地形タイプ": "砂丘",
        "植生": "海浜植生（コウボウムギ・ハマヒルガオ）",
        "QC": "ok"
      }
    },
    {
      "type": "Feature",
      "geometry": {
        "type": "Point",
        "coordinates": [
          140.025,
          39.07
        ]
      },
      "properties": {
        "都道府県": "山形県",
        "名称": "鳥海山南麓",
        "地理的特徴・成り立ち": "火山性扇状地。溶岩流と降下火山灰が重畳。",
        "地形タイプ": "火山地形",
        "植生": "高山・亜高山帯（ハイマツ・ダケカンバ）",
        "QC": "ok"
      }
    },
    {
      "type": "Feature",
      "geometry": {
        "type": "Point",
        "coordinates": [
          140.421,
          38.158
        ]
      },
      "properties": {
        "都道府県": "山形県",
        "名称": "蔵王温泉周辺",
        "地理的特徴・成り立ち": "カルデラ縁の酸性泉湧出帯。温泉沈殿物堆積。",
        "地形タイプ": "火山地形",
        "植生": "高山・亜高山帯（ハイマツ・ダケカンバ）",
        "QC": "ok"
      }
    },
    {
      "type": "Feature",
      "geometry": {
        "type": "Point",
        "coordinates": [
          140.12,
          37.75
        ]
      },
      "properties": {
        "都道府県": "山形県",
        "名称": "西吾妻山",
        "地理的特徴・成り立ち": "花崗岩基盤上の安山岩質溶岩台地。圏谷・雪蝕谷が残存。",
        "地形タイプ": "火山地形",
        "植生": "高山・亜高山帯（ハイマツ・ダケカンバ）",
        "QC": "ok"
      }
    },
    {
      "type": "Feature",
      "geometry": {
        "type": "Point",
        "coordinates": [
          140.339,
          38.263
        ]
      },
      "properties": {
        "都道府県": "山形県",
        "名称": "山形盆地",
        "地理的特徴・成り立ち": "断層沈降性の構造盆地。厚い堆積層と火山灰層。",
        "地形タイプ": "火山地形",
        "植生": "高山・亜高山帯（ハイマツ・ダケカンバ）",
        "QC": "ok"
      }
    },
    {
      "type": "Feature",
      "geometry": {
        "type": "Point",
        "coordinates": [
          140.02,
          38.11
        ]
      },
      "properties": {
        "都道府県": "山形県",
        "名称": "長井盆地",
        "地理的特徴・成り立ち": "非対称の沈降盆地。盆地縁に段丘崖。",
        "地形タイプ": "段丘",
        "植生": "二次林（コナラ・アカマツ）",
        "QC": "ok"
      }
    },
    {
      "type": "Feature",
      "geometry": {
        "type": "Point",
        "coordinates": [
          140.1,
          37.9
        ]
      },
      "properties": {
        "都道府県": "山形県",
        "名称": "米沢盆地",
        "地理的特徴・成り立ち": "逆断層活動で形成の構造盆地。火山灰層を多く挟在。",
        "地形タイプ": "火山地形",
        "植生": "高山・亜高山帯（ハイマツ・ダケカンバ）",
        "QC": "ok"
      }
    },
    {
      "type": "Feature",
      "geometry": {
        "type": "Point",
        "coordinates": [
          139.72,
          37.87
        ]
      },
      "properties": {
        "都道府県": "山形県",
        "名称": "飯豊山地",
        "地理的特徴・成り立ち": "新第三紀火山岩・花崗岩の隆起山地。氷食谷が残る。",
        "地形タイプ": "火山地形",
        "植生": "高山・亜高山帯（ハイマツ・ダケカンバ）",
        "QC": "ok"
      }
    },
    {
      "type": "Feature",
      "geometry": {
        "type": "Point",
        "coordinates": [
          140.303,
          38.767
        ]
      },
      "properties": {
        "都道府県": "山形県",
        "名称": "新庄盆地",
        "地理的特徴・成り立ち": "褶曲帯内の沈降性堆積盆地。扇状地・氾濫原が複合。",
        "地形タイプ": "扇状地",
        "植生": "ヨシ・アシ原／水田モザイク",
        "QC": "ok"
      }
    },
    {
      "type": "Feature",
      "geometry": {
        "type": "Point",
        "coordinates": [
          140.106,
          38.654
        ]
      },
      "properties": {
        "都道府県": "山形県",
        "名称": "最上峡",
        "地理的特徴・成り立ち": "花崗岩・堆積岩の峡谷。下刻と段丘形成。",
        "地形タイプ": "段丘",
        "植生": "二次林（コナラ・アカマツ）",
        "QC": "ok"
      }
    },
    {
      "type": "Feature",
      "geometry": {
        "type": "Point",
        "coordinates": [
          139.554,
          39.198
        ]
      },
      "properties": {
        "都道府県": "山形県",
        "名称": "飛島",
        "地理的特徴・成り立ち": "第三紀堆積岩の孤島。隆起海岸・海食洞が発達。",
        "地形タイプ": "海食崖・波食台",
        "植生": "照葉樹林（シイ・タブ）",
        "QC": "ok"
      }
    },
    {
      "type": "Feature",
      "geometry": {
        "type": "Point",
        "coordinates": [
          139.95,
          38.4
        ]
      },
      "properties": {
        "都道府県": "山形県",
        "名称": "朝日山地",
        "地理的特徴・成り立ち": "変成岩・花崗岩の隆起山地。急峻な谷と地すべり。",
        "地形タイプ": "花崗岩侵食地形",
        "植生": "落葉広葉樹林／草原モザイク",
        "QC": "ok"
      }
    },
    {
      "type": "Feature",
      "geometry": {
        "type": "Point",
        "coordinates": [
          139.77,
          38.05
        ]
      },
      "properties": {
        "都道府県": "山形県",
        "名称": "小国盆地",
        "地理的特徴・成り立ち": "沈降性盆地。段丘面が明瞭で断層変形を示す。",
        "地形タイプ": "段丘",
        "植生": "二次林（コナラ・アカマツ）",
        "QC": "ok"
      }
    },
    {
      "type": "Feature",
      "geometry": {
        "type": "Point",
        "coordinates": [
          140.28,
          38.367
        ]
      },
      "properties": {
        "都道府県": "山形県",
        "名称": "寒河江扇状地",
        "地理的特徴・成り立ち": "礫質扇状地。地下水涵養が盛ん。",
        "地形タイプ": "扇状地",
        "植生": "湧水周辺の湿生群落",
        "QC": "ok"
      }
    },
    {
      "type": "Feature",
      "geometry": {
        "type": "Point",
        "coordinates": [
          139.969,
          38.758
        ]
      },
      "properties": {
        "都道府県": "山形県",
        "名称": "立谷沢川谷地",
        "地理的特徴・成り立ち": "侵食谷。谷底平野形成が進行。",
        "地形タイプ": "氾濫原・低地",
        "植生": "ヨシ・アシ原／水田モザイク",
        "QC": "ok"
      }
    },
    {
      "type": "Feature",
      "geometry": {
        "type": "Point",
        "coordinates": [
          140.072,
          37.601
        ]
      },
      "properties": {
        "都道府県": "福島県",
        "名称": "磐梯山",
        "地理的特徴・成り立ち": "成層火山。1888年の山体崩壊で堰止湖群が形成。",
        "地形タイプ": "火山地形",
        "植生": "高山・亜高山帯（ハイマツ・ダケカンバ）",
        "QC": "ok"
      }
    },
    {
      "type": "Feature",
      "geometry": {
        "type": "Point",
        "coordinates": [
          140.088,
          37.519
        ]
      },
      "properties": {
        "都道府県": "福島県",
        "名称": "猪苗代湖",
        "地理的特徴・成り立ち": "断層活動で形成の構造湖。西縁断層帯に沿う沈降湖盆。",
        "地形タイプ": "断層地形",
        "植生": "落葉広葉樹林／草原モザイク",
        "QC": "ok"
      }
    },
    {
      "type": "Feature",
      "geometry": {
        "type": "Point",
        "coordinates": [
          140.281,
          37.617
        ]
      },
      "properties": {
        "都道府県": "福島県",
        "名称": "安達太良山",
        "地理的特徴・成り立ち": "複成火山。中央火口丘の噴気帯とカルデラ性陥没。",
        "地形タイプ": "火山地形",
        "植生": "高山・亜高山帯（ハイマツ・ダケカンバ）",
        "QC": "ok"
      }
    },
    {
      "type": "Feature",
      "geometry": {
        "type": "Point",
        "coordinates": [
          140.244,
          37.745
        ]
      },
      "properties": {
        "都道府県": "福島県",
        "名称": "吾妻連峰",
        "地理的特徴・成り立ち": "複成火山群。火砕流堆積が広く、氷蝕地形が共存。",
        "地形タイプ": "火山地形",
        "植生": "高山・亜高山帯（ハイマツ・ダケカンバ）",
        "QC": "ok"
      }
    },
    {
      "type": "Feature",
      "geometry": {
        "type": "Point",
        "coordinates": [
          140.245,
          37.728
        ]
      },
      "properties": {
        "都道府県": "福島県",
        "名称": "浄土平",
        "地理的特徴・成り立ち": "噴気帯の平坦地。酸性土壌と温泉沈殿物が特徴。",
        "地形タイプ": "火山地形",
        "植生": "高山・亜高山帯（ハイマツ・ダケカンバ）",
        "QC": "ok"
      }
    },
    {
      "type": "Feature",
      "geometry": {
        "type": "Point",
        "coordinates": [
          140.68,
          37.38
        ]
      },
      "properties": {
        "都道府県": "福島県",
        "名称": "阿武隈山地",
        "地理的特徴・成り立ち": "花崗岩の隆起準平原。節理制御の谷地形と風化丘陵。",
        "地形タイプ": "花崗岩侵食地形",
        "植生": "落葉広葉樹林／草原モザイク",
        "QC": "ok"
      }
    },
    {
      "type": "Feature",
      "geometry": {
        "type": "Point",
        "coordinates": [
          139.89,
          37.52
        ]
      },
      "properties": {
        "都道府県": "福島県",
        "名称": "会津盆地",
        "地理的特徴・成り立ち": "構造盆地。盆地縁断層に規制された沈降域で扇状地・氾濫原が発達。",
        "地形タイプ": "扇状地",
        "植生": "ヨシ・アシ原／水田モザイク",
        "QC": "ok"
      }
    },
    {
      "type": "Feature",
      "geometry": {
        "type": "Point",
        "coordinates": [
          139.88,
          37.65
        ]
      },
      "properties": {
        "都道府県": "福島県",
        "名称": "喜多方扇状地",
        "地理的特徴・成り立ち": "礫層厚大の扇状地。伏流水系が発達。",
        "地形タイプ": "扇状地",
        "植生": "湧水周辺の湿生群落",
        "QC": "ok"
      }
    },
    {
      "type": "Feature",
      "geometry": {
        "type": "Point",
        "coordinates": [
          139.7,
          37.8
        ]
      },
      "properties": {
        "都道府県": "福島県",
        "名称": "飯豊山地東麓",
        "地理的特徴・成り立ち": "隆起山地の東斜面。断層崖と崩壊地形が卓越。",
        "地形タイプ": "断層地形",
        "植生": "落葉広葉樹林／草原モザイク",
        "QC": "ok"
      }
    },
    {
      "type": "Feature",
      "geometry": {
        "type": "Point",
        "coordinates": [
          140.47,
          37.75
        ]
      },
      "properties": {
        "都道府県": "福島県",
        "名称": "中通り盆地列",
        "地理的特徴・成り立ち": "福島〜郡山〜須賀川の連続する沈降盆地列。",
        "地形タイプ": "断層地形",
        "植生": "落葉広葉樹林／草原モザイク",
        "QC": "ok"
      }
    },
    {
      "type": "Feature",
      "geometry": {
        "type": "Point",
        "coordinates": [
          140.35,
          37.4
        ]
      },
      "properties": {
        "都道府県": "福島県",
        "名称": "郡山盆地",
        "地理的特徴・成り立ち": "沈降性構造盆地。火山灰層を挟在し沖積層が厚い。",
        "地形タイプ": "火山地形",
        "植生": "高山・亜高山帯（ハイマツ・ダケカンバ）",
        "QC": "ok"
      }
    },
    {
      "type": "Feature",
      "geometry": {
        "type": "Point",
        "coordinates": [
          140.883,
          37.05
        ]
      },
      "properties": {
        "都道府県": "福島県",
        "名称": "いわき平野",
        "地理的特徴・成り立ち": "海成・河成の複合平野。完新世海進・海退堆積が交互。",
        "地形タイプ": "氾濫原・低地",
        "植生": "ヨシ・アシ原／水田モザイク",
        "QC": "ok"
      }
    },
    {
      "type": "Feature",
      "geometry": {
        "type": "Point",
        "coordinates": [
          140.905,
          36.942
        ]
      },
      "properties": {
        "都道府県": "福島県",
        "名称": "小名浜湾",
        "地理的特徴・成り立ち": "沈水谷の湾入地形。砂州発達と静穏な内湾堆積。",
        "地形タイプ": "砂州・砂嘴",
        "植生": "海浜植生（コウボウムギ・ハマヒルガオ）",
        "QC": "ok"
      }
    },
    {
      "type": "Feature",
      "geometry": {
        "type": "Point",
        "coordinates": [
          140.42,
          37.54
        ]
      },
      "properties": {
        "都道府県": "福島県",
        "名称": "浅香山断層帯",
        "地理的特徴・成り立ち": "活断層帯。右横ずれの第四紀変位が確認。",
        "地形タイプ": "断層地形",
        "植生": "落葉広葉樹林／草原モザイク",
        "QC": "ok"
      }
    },
    {
      "type": "Feature",
      "geometry": {
        "type": "Point",
        "coordinates": [
          140.23,
          37.12
        ]
      },
      "properties": {
        "都道府県": "福島県",
        "名称": "白河盆地",
        "地理的特徴・成り立ち": "構造盆地。那須火山帯北縁で火山灰層多い。",
        "地形タイプ": "火山地形",
        "植生": "高山・亜高山帯（ハイマツ・ダケカンバ）",
        "QC": "ok"
      }
    },
    {
      "type": "Feature",
      "geometry": {
        "type": "Point",
        "coordinates": [
          140.082,
          37.133
        ]
      },
      "properties": {
        "都道府県": "福島県",
        "名称": "那須連峰（福島側）",
        "地理的特徴・成り立ち": "成層火山群。山体崩壊と火砕流堆積により扇状地発達。",
        "地形タイプ": "火山地形",
        "植生": "高山・亜高山帯（ハイマツ・ダケカンバ）",
        "QC": "ok"
      }
    },
    {
      "type": "Feature",
      "geometry": {
        "type": "Point",
        "coordinates": [
          140.086,
          37.612
        ]
      },
      "properties": {
        "都道府県": "福島県",
        "名称": "裏磐梯五色沼群",
        "地理的特徴・成り立ち": "磐梯山崩壊による堰止湖群。多様な水質を示す。",
        "地形タイプ": "その他",
        "植生": "落葉広葉樹林／草原モザイク",
        "QC": "ok"
      }
    },
    {
      "type": "Feature",
      "geometry": {
        "type": "Point",
        "coordinates": [
          140.95,
          37.15
        ]
      },
      "properties": {
        "都道府県": "福島県",
        "名称": "浜通り段丘群",
        "地理的特徴・成り立ち": "連続する海岸段丘。地域差のある隆起速度の指標。",
        "地形タイプ": "海岸段丘",
        "植生": "二次林（コナラ・アカマツ）",
        "QC": "ok"
      }
    },
    {
      "type": "Feature",
      "geometry": {
        "type": "Point",
        "coordinates": [
          140.955,
          37.788
        ]
      },
      "properties": {
        "都道府県": "福島県",
        "名称": "相馬中村平野",
        "地理的特徴・成り立ち": "沖積平野。自然堤防・後背湿地が発達し津波堆積を保持。",
        "地形タイプ": "氾濫原・低地",
        "植生": "ヨシ・アシ原／水田モザイク",
        "QC": "ok"
      }
    },
    {
      "type": "Feature",
      "geometry": {
        "type": "Point",
        "coordinates": [
          140.033,
          37.55
        ]
      },
      "properties": {
        "都道府県": "福島県",
        "名称": "猪苗代西岸段丘",
        "地理的特徴・成り立ち": "湖成段丘。湖面変動と断層活動の相互作用。",
        "地形タイプ": "段丘",
        "植生": "二次林（コナラ・アカマツ）",
        "QC": "ok"
      }
    },
    {
      "type": "Feature",
      "geometry": {
        "type": "Point",
        "coordinates": [
          140.106,
          36.225
        ]
      },
      "properties": {
        "都道府県": "茨城県",
        "名称": "筑波山",
        "地理的特徴・成り立ち": "花崗斑岩体の残丘。風化殻と節理に規制されたブロック地形。",
        "地形タイプ": "花崗岩侵食地形",
        "植生": "落葉広葉樹林／草原モザイク",
        "QC": "ok"
      }
    },
    {
      "type": "Feature",
      "geometry": {
        "type": "Point",
        "coordinates": [
          140.375,
          36.033
        ]
      },
      "properties": {
        "都道府県": "茨城県",
        "名称": "霞ヶ浦",
        "地理的特徴・成り立ち": "古東京湾の後背潟湖。完新世海進・海退と砂州発達で形成。",
        "地形タイプ": "砂州・砂嘴",
        "植生": "海浜植生（コウボウムギ・ハマヒルガオ）",
        "QC": "ok"
      }
    },
    {
      "type": "Feature",
      "geometry": {
        "type": "Point",
        "coordinates": [
          140.538,
          35.992
        ]
      },
      "properties": {
        "都道府県": "茨城県",
        "名称": "北浦",
        "地理的特徴・成り立ち": "砂州により外洋と隔てられた潟湖。沿岸漂砂と河川供給の相互作用。",
        "地形タイプ": "砂州・砂嘴",
        "植生": "海浜植生（コウボウムギ・ハマヒルガオ）",
        "QC": "ok"
      }
    },
    {
      "type": "Feature",
      "geometry": {
        "type": "Point",
        "coordinates": [
          140.765,
          35.735
        ]
      },
      "properties": {
        "都道府県": "茨城県",
        "名称": "鹿島灘海岸（波崎砂州）",
        "地理的特徴・成り立ち": "強い沿岸漂砂で発達した長大砂州・砂浜海岸。バリア型地形。",
        "地形タイプ": "砂州・砂嘴",
        "植生": "海浜植生（コウボウムギ・ハマヒルガオ）",
        "QC": "ok"
      }
    },
    {
      "type": "Feature",
      "geometry": {
        "type": "Point",
        "coordinates": [
          140.583,
          36.315
        ]
      },
      "properties": {
        "都道府県": "茨城県",
        "名称": "大洗磯前海岸",
        "地理的特徴・成り立ち": "砂岩・泥岩の海食台と汀線後退。波浪卓越の侵食浜。",
        "地形タイプ": "海食崖・波食台",
        "植生": "照葉樹林（シイ・タブ）",
        "QC": "ok"
      }
    },
    {
      "type": "Feature",
      "geometry": {
        "type": "Point",
        "coordinates": [
          140.595,
          36.386
        ]
      },
      "properties": {
        "都道府県": "茨城県",
        "名称": "那珂川下流氾濫原",
        "地理的特徴・成り立ち": "蛇行河川の自然堤防・後背湿地が発達する沖積低地。",
        "地形タイプ": "氾濫原・低地",
        "植生": "ヨシ・アシ原／水田モザイク",
        "QC": "ok"
      }
    },
    {
      "type": "Feature",
      "geometry": {
        "type": "Point",
        "coordinates": [
          140.475,
          36.756
        ]
      },
      "properties": {
        "都道府県": "茨城県",
        "名称": "久慈川中流段丘",
        "地理的特徴・成り立ち": "河成段丘群。堆積面高度差が隆起・気候変動を反映。",
        "地形タイプ": "段丘",
        "植生": "二次林（コナラ・アカマツ）",
        "QC": "ok"
      }
    },
    {
      "type": "Feature",
      "geometry": {
        "type": "Point",
        "coordinates": [
          140.653,
          36.587
        ]
      },
      "properties": {
        "都道府県": "茨城県",
        "名称": "日立海岸段丘",
        "地理的特徴・成り立ち": "海成段丘面が連続。更新世海面変動と隆起の指標。",
        "地形タイプ": "海岸段丘",
        "植生": "二次林（コナラ・アカマツ）",
        "QC": "ok"
      }
    },
    {
      "type": "Feature",
      "geometry": {
        "type": "Point",
        "coordinates": [
          140.504,
          36.309
        ]
      },
      "properties": {
        "都道府県": "茨城県",
        "名称": "涸沼",
        "地理的特徴・成り立ち": "汽水潟湖。古砂州の内側に形成、干潟性堆積が卓越。",
        "地形タイプ": "砂州・砂嘴",
        "植生": "塩性湿地・マングローブ・サンゴ礁",
        "QC": "ok"
      }
    },
    {
      "type": "Feature",
      "geometry": {
        "type": "Point",
        "coordinates": [
          140.62,
          36.376
        ]
      },
      "properties": {
        "都道府県": "茨城県",
        "名称": "ひたちなか海岸砂丘",
        "地理的特徴・成り立ち": "沿岸風成作用で形成された海岸砂丘列。",
        "地形タイプ": "砂丘",
        "植生": "海浜植生（コウボウムギ・ハマヒルガオ）",
        "QC": "ok"
      }
    },
    {
      "type": "Feature",
      "geometry": {
        "type": "Point",
        "coordinates": [
          140.446,
          36.778
        ]
      },
      "properties": {
        "都道府県": "茨城県",
        "名称": "竜神峡（袋田-大子）",
        "地理的特徴・成り立ち": "花崗岩・変成岩の節理に沿った線状谷。河川下刻が卓越。",
        "地形タイプ": "花崗岩侵食地形",
        "植生": "落葉広葉樹林／草原モザイク",
        "QC": "ok"
      }
    },
    {
      "type": "Feature",
      "geometry": {
        "type": "Point",
        "coordinates": [
          140.427,
          35.999
        ]
      },
      "properties": {
        "都道府県": "茨城県",
        "名称": "行方台地",
        "地理的特徴・成り立ち": "下総層群の台地。関東ローム層に覆われ台地縁に谷頭侵食。",
        "地形タイプ": "台地",
        "植生": "二次林（コナラ・アカマツ）",
        "QC": "ok"
      }
    },
    {
      "type": "Feature",
      "geometry": {
        "type": "Point",
        "coordinates": [
          140.307,
          36.383
        ]
      },
      "properties": {
        "都道府県": "茨城県",
        "名称": "笠間盆地",
        "地理的特徴・成り立ち": "花崗岩体に囲まれた構造盆地。扇状地性堆積が発達。",
        "地形タイプ": "扇状地",
        "植生": "湧水周辺の湿生群落",
        "QC": "ok"
      }
    },
    {
      "type": "Feature",
      "geometry": {
        "type": "Point",
        "coordinates": [
          139.996,
          36.12
        ]
      },
      "properties": {
        "都道府県": "茨城県",
        "名称": "小貝川低地",
        "地理的特徴・成り立ち": "旧利根川水系の氾濫原。自然堤防・後背湿地のモザイク。",
        "地形タイプ": "氾濫原・低地",
        "植生": "ヨシ・アシ原／水田モザイク",
        "QC": "ok"
      }
    },
    {
      "type": "Feature",
      "geometry": {
        "type": "Point",
        "coordinates": [
          140.548,
          36.878
        ]
      },
      "properties": {
        "都道府県": "茨城県",
        "名称": "八溝山地（花園渓谷）",
        "地理的特徴・成り立ち": "古生層基盤の侵食谷。節理支配の滝・峡谷が連続。",
        "地形タイプ": "その他",
        "植生": "落葉広葉樹林／草原モザイク",
        "QC": "ok"
      }
    },
    {
      "type": "Feature",
      "geometry": {
        "type": "Point",
        "coordinates": [
          140.13,
          36.1
        ]
      },
      "properties": {
        "都道府県": "茨城県",
        "名称": "筑波台地（稲敷台地北縁）",
        "地理的特徴・成り立ち": "下総台地北端の段丘面。関東ローム・砂礫の二層構造。",
        "地形タイプ": "段丘",
        "植生": "二次林（コナラ・アカマツ）",
        "QC": "ok"
      }
    },
    {
      "type": "Feature",
      "geometry": {
        "type": "Point",
        "coordinates": [
          140.135,
          35.982
        ]
      },
      "properties": {
        "都道府県": "茨城県",
        "名称": "牛久沼",
        "地理的特徴・成り立ち": "旧河道閉塞の浅い湖沼。泥炭性堆積が卓越。",
        "地形タイプ": "その他",
        "植生": "落葉広葉樹林／草原モザイク",
        "QC": "ok"
      }
    },
    {
      "type": "Feature",
      "geometry": {
        "type": "Point",
        "coordinates": [
          140.829,
          35.734
        ]
      },
      "properties": {
        "都道府県": "茨城県",
        "名称": "波崎砂丘（銚子側接続）",
        "地理的特徴・成り立ち": "利根川河口砂丘列。風成・沿岸漂砂の複合地形。",
        "地形タイプ": "砂丘",
        "植生": "海浜植生（コウボウムギ・ハマヒルガオ）",
        "QC": "ok"
      }
    },
    {
      "type": "Feature",
      "geometry": {
        "type": "Point",
        "coordinates": [
          140.596,
          36.377
        ]
      },
      "properties": {
        "都道府県": "茨城県",
        "名称": "阿字ヶ浦海岸",
        "地理的特徴・成り立ち": "砂浜・海食台が並存。漂砂による汀線変動が顕著。",
        "地形タイプ": "海食崖・波食台",
        "植生": "照葉樹林（シイ・タブ）",
        "QC": "ok"
      }
    },
    {
      "type": "Feature",
      "geometry": {
        "type": "Point",
        "coordinates": [
          140.623,
          36.784
        ]
      },
      "properties": {
        "都道府県": "茨城県",
        "名称": "大北川扇状地",
        "地理的特徴・成り立ち": "山麓の小規模扇状地。礫質堆積と伏流水帯。",
        "地形タイプ": "扇状地",
        "植生": "湧水周辺の湿生群落",
        "QC": "ok"
      }
    },
    {
      "type": "Feature",
      "geometry": {
        "type": "Point",
        "coordinates": [
          140.026,
          37.125
        ]
      },
      "properties": {
        "都道府県": "栃木県",
        "名称": "那須岳（茶臼岳）",
        "地理的特徴・成り立ち": "成層火山。火砕丘・溶岩円頂丘を伴う第四紀火山体。",
        "地形タイプ": "火山地形",
        "植生": "高山・亜高山帯（ハイマツ・ダケカンバ）",
        "QC": "ok"
      }
    },
    {
      "type": "Feature",
      "geometry": {
        "type": "Point",
        "coordinates": [
          139.49,
          36.765
        ]
      },
      "properties": {
        "都道府県": "栃木県",
        "名称": "日光男体山",
        "地理的特徴・成り立ち": "安山岩質成層火山。山麓に溶岩流台地が発達。",
        "地形タイプ": "火山地形",
        "植生": "高山・亜高山帯（ハイマツ・ダケカンバ）",
        "QC": "ok"
      }
    },
    {
      "type": "Feature",
      "geometry": {
        "type": "Point",
        "coordinates": [
          139.484,
          36.742
        ]
      },
      "properties": {
        "都道府県": "栃木県",
        "名称": "中禅寺湖",
        "地理的特徴・成り立ち": "男体山噴出物により谷が堰き止められた火山性堰止湖。",
        "地形タイプ": "火山地形",
        "植生": "高山・亜高山帯（ハイマツ・ダケカンバ）",
        "QC": "ok"
      }
    },
    {
      "type": "Feature",
      "geometry": {
        "type": "Point",
        "coordinates": [
          139.51,
          36.736
        ]
      },
      "properties": {
        "都道府県": "栃木県",
        "名称": "華厳滝",
        "地理的特徴・成り立ち": "溶岩台地末端の滝。硬軟互層の差別侵食で滝後退。",
        "地形タイプ": "火山地形",
        "植生": "高山・亜高山帯（ハイマツ・ダケカンバ）",
        "QC": "ok"
      }
    },
    {
      "type": "Feature",
      "geometry": {
        "type": "Point",
        "coordinates": [
          139.447,
          36.778
        ]
      },
      "properties": {
        "都道府県": "栃木県",
        "名称": "戦場ヶ原",
        "地理的特徴・成り立ち": "高位湿原。火山性堰止により泥炭地が発達。",
        "地形タイプ": "火山地形",
        "植生": "高山・亜高山帯（ハイマツ・ダケカンバ）",
        "QC": "ok"
      }
    },
    {
      "type": "Feature",
      "geometry": {
        "type": "Point",
        "coordinates": [
          139.721,
          36.827
        ]
      },
      "properties": {
        "都道府県": "栃木県",
        "名称": "鬼怒川渓谷",
        "地理的特徴・成り立ち": "火山岩台地を刻む峡谷。段丘面が連続。",
        "地形タイプ": "火山地形",
        "植生": "高山・亜高山帯（ハイマツ・ダケカンバ）",
        "QC": "ok"
      }
    },
    {
      "type": "Feature",
      "geometry": {
        "type": "Point",
        "coordinates": [
          139.781,
          36.971
        ]
      },
      "properties": {
        "都道府県": "栃木県",
        "名称": "塩原温泉郷（塩原渓谷）",
        "地理的特徴・成り立ち": "溶結凝灰岩の峡谷。温泉沈殿物と断層破砕帯。",
        "地形タイプ": "火山地形",
        "植生": "高山・亜高山帯（ハイマツ・ダケカンバ）",
        "QC": "ok"
      }
    },
    {
      "type": "Feature",
      "geometry": {
        "type": "Point",
        "coordinates": [
          139.383,
          36.574
        ]
      },
      "properties": {
        "都道府県": "栃木県",
        "名称": "足尾山地（銅親水公園周辺）",
        "地理的特徴・成り立ち": "先第三紀基盤の隆起山地。変質帯と侵食谷が発達。",
        "地形タイプ": "その他",
        "植生": "落葉広葉樹林／草原モザイク",
        "QC": "ok"
      }
    },
    {
      "type": "Feature",
      "geometry": {
        "type": "Point",
        "coordinates": [
          139.838,
          36.592
        ]
      },
      "properties": {
        "都道府県": "栃木県",
        "名称": "宇都宮台地（大谷石採掘場）",
        "地理的特徴・成り立ち": "火砕流起源の凝灰質砂岩台地。採掘露頭が地形面を露出。",
        "地形タイプ": "火山地形",
        "植生": "高山・亜高山帯（ハイマツ・ダケカンバ）",
        "QC": "ok"
      }
    },
    {
      "type": "Feature",
      "geometry": {
        "type": "Point",
        "coordinates": [
          139.624,
          36.424
        ]
      },
      "properties": {
        "都道府県": "栃木県",
        "名称": "葛生石灰岩地帯",
        "地理的特徴・成り立ち": "石灰岩のカルスト地形（ドリーネ・ウバーレ）。",
        "地形タイプ": "カルスト",
        "植生": "石灰岩地性草原（ススキ等）",
        "QC": "ok"
      }
    },
    {
      "type": "Feature",
      "geometry": {
        "type": "Point",
        "coordinates": [
          139.678,
          36.246
        ]
      },
      "properties": {
        "都道府県": "栃木県",
        "名称": "渡良瀬遊水地",
        "地理的特徴・成り立ち": "利根川水系低地の調整池。旧氾濫原の人工湿地。",
        "地形タイプ": "氾濫原・低地",
        "植生": "ヨシ・アシ原／水田モザイク",
        "QC": "ok"
      }
    },
    {
      "type": "Feature",
      "geometry": {
        "type": "Point",
        "coordinates": [
          139.579,
          36.309
        ]
      },
      "properties": {
        "都道府県": "栃木県",
        "名称": "佐野盆地",
        "地理的特徴・成り立ち": "構造性小盆地。段丘面と扇状地が発達。",
        "地形タイプ": "扇状地",
        "植生": "湧水周辺の湿生群落",
        "QC": "ok"
      }
    },
    {
      "type": "Feature",
      "geometry": {
        "type": "Point",
        "coordinates": [
          139.745,
          36.557
        ]
      },
      "properties": {
        "都道府県": "栃木県",
        "名称": "鹿沼扇状地",
        "地理的特徴・成り立ち": "古渡良瀬川系の扇状地。伏流水系が発達。",
        "地形タイプ": "扇状地",
        "植生": "湧水周辺の湿生群落",
        "QC": "ok"
      }
    },
    {
      "type": "Feature",
      "geometry": {
        "type": "Point",
        "coordinates": [
          139.764,
          36.34
        ]
      },
      "properties": {
        "都道府県": "栃木県",
        "名称": "思川低地",
        "地理的特徴・成り立ち": "自然堤防・旧河道が分布する氾濫原。",
        "地形タイプ": "氾濫原・低地",
        "植生": "ヨシ・アシ原／水田モザイク",
        "QC": "ok"
      }
    },
    {
      "type": "Feature",
      "geometry": {
        "type": "Point",
        "coordinates": [
          139.688,
          36.722
        ]
      },
      "properties": {
        "都道府県": "栃木県",
        "名称": "今市扇状地",
        "地理的特徴・成り立ち": "日光火山群起源の扇状地。軽石層を挟在。",
        "地形タイプ": "火山地形",
        "植生": "高山・亜高山帯（ハイマツ・ダケカンバ）",
        "QC": "ok"
      }
    },
    {
      "type": "Feature",
      "geometry": {
        "type": "Point",
        "coordinates": [
          139.516,
          36.98
        ]
      },
      "properties": {
        "都道府県": "栃木県",
        "名称": "那珂川源流域（馬門岩）",
        "地理的特徴・成り立ち": "柱状節理安山岩の露頭。侵食下刻の指標。",
        "地形タイプ": "その他",
        "植生": "落葉広葉樹林／草原モザイク",
        "QC": "ok"
      }
    },
    {
      "type": "Feature",
      "geometry": {
        "type": "Point",
        "coordinates": [
          139.889,
          36.643
        ]
      },
      "properties": {
        "都道府県": "栃木県",
        "名称": "鬼怒川扇状地（宇都宮北）",
        "地理的特徴・成り立ち": "火山性砂礫の厚い扇状地。扇端湧水帯。",
        "地形タイプ": "火山地形",
        "植生": "高山・亜高山帯（ハイマツ・ダケカンバ）",
        "QC": "ok"
      }
    },
    {
      "type": "Feature",
      "geometry": {
        "type": "Point",
        "coordinates": [
          139.605,
          36.349
        ]
      },
      "properties": {
        "都道府県": "栃木県",
        "名称": "唐沢山地",
        "地理的特徴・成り立ち": "花崗岩・変成岩の小起伏山地。侵食小起伏面。",
        "地形タイプ": "花崗岩侵食地形",
        "植生": "落葉広葉樹林／草原モザイク",
        "QC": "ok"
      }
    },
    {
      "type": "Feature",
      "geometry": {
        "type": "Point",
        "coordinates": [
          139.38,
          36.8
        ]
      },
      "properties": {
        "都道府県": "栃木県",
        "名称": "日光白根山東麓",
        "地理的特徴・成り立ち": "複成火山の東麓。溶岩末端と高位湿原が点在。",
        "地形タイプ": "火山地形",
        "植生": "高山・亜高山帯（ハイマツ・ダケカンバ）",
        "QC": "ok"
      }
    },
    {
      "type": "Feature",
      "geometry": {
        "type": "Point",
        "coordinates": [
          139.2,
          36.545
        ]
      },
      "properties": {
        "都道府県": "群馬県",
        "名称": "赤城山",
        "地理的特徴・成り立ち": "複成火山。カルデラ湖を内包。",
        "地形タイプ": "火山地形",
        "植生": "高山・亜高山帯（ハイマツ・ダケカンバ）",
        "QC": "ok"
      }
    },
    {
      "type": "Feature",
      "geometry": {
        "type": "Point",
        "coordinates": [
          138.853,
          36.475
        ]
      },
      "properties": {
        "都道府県": "群馬県",
        "名称": "榛名山",
        "地理的特徴・成り立ち": "複合火山。溶岩ドームと榛名湖。",
        "地形タイプ": "火山地形",
        "植生": "高山・亜高山帯（ハイマツ・ダケカンバ）",
        "QC": "ok"
      }
    },
    {
      "type": "Feature",
      "geometry": {
        "type": "Point",
        "coordinates": [
          138.74,
          36.298
        ]
      },
      "properties": {
        "都道府県": "群馬県",
        "名称": "妙義山",
        "地理的特徴・成り立ち": "硬質岩峰群。選択的侵食で奇峰が林立。",
        "地形タイプ": "その他",
        "植生": "落葉広葉樹林／草原モザイク",
        "QC": "ok"
      }
    },
    {
      "type": "Feature",
      "geometry": {
        "type": "Point",
        "coordinates": [
          138.527,
          36.619
        ]
      },
      "properties": {
        "都道府県": "群馬県",
        "名称": "草津白根山",
        "地理的特徴・成り立ち": "活火山。火口湖と硫気孔帯の酸性地形。",
        "地形タイプ": "火山地形",
        "植生": "高山・亜高山帯（ハイマツ・ダケカンバ）",
        "QC": "ok"
      }
    },
    {
      "type": "Feature",
      "geometry": {
        "type": "Point",
        "coordinates": [
          139.041,
          36.647
        ]
      },
      "properties": {
        "都道府県": "群馬県",
        "名称": "利根川中流河岸段丘（沼田）",
        "地理的特徴・成り立ち": "河成段丘の階段状配列。",
        "地形タイプ": "段丘",
        "植生": "二次林（コナラ・アカマツ）",
        "QC": "ok"
      }
    },
    {
      "type": "Feature",
      "geometry": {
        "type": "Point",
        "coordinates": [
          139.01,
          36.36
        ]
      },
      "properties": {
        "都道府県": "群馬県",
        "名称": "前橋・高崎扇状地",
        "地理的特徴・成り立ち": "合流扇状地。礫質厚大で伏流水帯。",
        "地形タイプ": "扇状地",
        "植生": "湧水周辺の湿生群落",
        "QC": "ok"
      }
    },
    {
      "type": "Feature",
      "geometry": {
        "type": "Point",
        "coordinates": [
          139.0,
          36.492
        ]
      },
      "properties": {
        "都道府県": "群馬県",
        "名称": "渋川段丘・吉岡台地",
        "地理的特徴・成り立ち": "段丘面群。テラス面の比高差が明瞭。",
        "地形タイプ": "段丘",
        "植生": "二次林（コナラ・アカマツ）",
        "QC": "ok"
      }
    },
    {
      "type": "Feature",
      "geometry": {
        "type": "Point",
        "coordinates": [
          138.729,
          36.553
        ]
      },
      "properties": {
        "都道府県": "群馬県",
        "名称": "吾妻川渓谷",
        "地理的特徴・成り立ち": "火山岩台地を刻む峡谷。温泉沈殿物と破砕帯。",
        "地形タイプ": "火山地形",
        "植生": "高山・亜高山帯（ハイマツ・ダケカンバ）",
        "QC": "ok"
      }
    },
    {
      "type": "Feature",
      "geometry": {
        "type": "Point",
        "coordinates": [
          138.787,
          36.221
        ]
      },
      "properties": {
        "都道府県": "群馬県",
        "名称": "下仁田石灰岩地帯",
        "地理的特徴・成り立ち": "秩父帯の石灰岩体。カルストとスラスト帯。",
        "地形タイプ": "カルスト",
        "植生": "石灰岩地性草原（ススキ等）",
        "QC": "ok"
      }
    },
    {
      "type": "Feature",
      "geometry": {
        "type": "Point",
        "coordinates": [
          138.555,
          36.343
        ]
      },
      "properties": {
        "都道府県": "群馬県",
        "名称": "碓氷峠",
        "地理的特徴・成り立ち": "関東山地とフォッサマグナの境界峠。断層・破砕帯。",
        "地形タイプ": "断層地形",
        "植生": "落葉広葉樹林／草原モザイク",
        "QC": "ok"
      }
    },
    {
      "type": "Feature",
      "geometry": {
        "type": "Point",
        "coordinates": [
          138.568,
          36.525
        ]
      },
      "properties": {
        "都道府県": "群馬県",
        "名称": "浅間北麓（嬬恋高原）",
        "地理的特徴・成り立ち": "溶岩原・スコリア丘群。火山麓扇状地。",
        "地形タイプ": "火山地形",
        "植生": "高山・亜高山帯（ハイマツ・ダケカンバ）",
        "QC": "ok"
      }
    },
    {
      "type": "Feature",
      "geometry": {
        "type": "Point",
        "coordinates": [
          139.192,
          36.706
        ]
      },
      "properties": {
        "都道府県": "群馬県",
        "名称": "片品川扇状地",
        "地理的特徴・成り立ち": "谷出口の粗粒扇状地。段丘化が進む。",
        "地形タイプ": "扇状地",
        "植生": "湧水周辺の湿生群落",
        "QC": "ok"
      }
    },
    {
      "type": "Feature",
      "geometry": {
        "type": "Point",
        "coordinates": [
          138.893,
          36.676
        ]
      },
      "properties": {
        "都道府県": "群馬県",
        "名称": "四万川渓谷",
        "地理的特徴・成り立ち": "花崗岩体の峡谷。節理に沿う線状谷。",
        "地形タイプ": "花崗岩侵食地形",
        "植生": "落葉広葉樹林／草原モザイク",
        "QC": "ok"
      }
    },
    {
      "type": "Feature",
      "geometry": {
        "type": "Point",
        "coordinates": [
          138.931,
          36.118
        ]
      },
      "properties": {
        "都道府県": "群馬県",
        "名称": "神流川谷",
        "地理的特徴・成り立ち": "蛇紋岩帯・スラストに沿う直線谷。",
        "地形タイプ": "その他",
        "植生": "落葉広葉樹林／草原モザイク",
        "QC": "ok"
      }
    },
    {
      "type": "Feature",
      "geometry": {
        "type": "Point",
        "coordinates": [
          139.229,
          36.936
        ]
      },
      "properties": {
        "都道府県": "群馬県",
        "名称": "尾瀬（群馬側）",
        "地理的特徴・成り立ち": "高位泥炭湿原。氷期環境下の堆積。",
        "地形タイプ": "氾濫原・低地",
        "植生": "ヨシ・アシ原／水田モザイク",
        "QC": "ok"
      }
    },
    {
      "type": "Feature",
      "geometry": {
        "type": "Point",
        "coordinates": [
          138.95,
          36.46
        ]
      },
      "properties": {
        "都道府県": "群馬県",
        "名称": "榛名外輪山東麓段丘",
        "地理的特徴・成り立ち": "火山麓段丘。軽石層に覆われる。",
        "地形タイプ": "火山地形",
        "植生": "高山・亜高山帯（ハイマツ・ダケカンバ）",
        "QC": "ok"
      }
    },
    {
      "type": "Feature",
      "geometry": {
        "type": "Point",
        "coordinates": [
          139.536,
          36.25
        ]
      },
      "properties": {
        "都道府県": "群馬県",
        "名称": "館林低地（多々良沼）",
        "地理的特徴・成り立ち": "利根川低地の旧氾濫原。浅い湖沼と湿地。",
        "地形タイプ": "氾濫原・低地",
        "植生": "ヨシ・アシ原／水田モザイク",
        "QC": "ok"
      }
    },
    {
      "type": "Feature",
      "geometry": {
        "type": "Point",
        "coordinates": [
          138.678,
          36.285
        ]
      },
      "properties": {
        "都道府県": "群馬県",
        "名称": "妙義-荒船断層帯北東縁",
        "地理的特徴・成り立ち": "圧縮・横ずれ複合の活断層帯。変位地形が顕著。",
        "地形タイプ": "断層地形",
        "植生": "落葉広葉樹林／草原モザイク",
        "QC": "ok"
      }
    },
    {
      "type": "Feature",
      "geometry": {
        "type": "Point",
        "coordinates": [
          138.998,
          36.493
        ]
      },
      "properties": {
        "都道府県": "群馬県",
        "名称": "伊香保温泉段丘",
        "地理的特徴・成り立ち": "温泉沈殿物と段丘面の重複地形。",
        "地形タイプ": "段丘",
        "植生": "二次林（コナラ・アカマツ）",
        "QC": "ok"
      }
    },
    {
      "type": "Feature",
      "geometry": {
        "type": "Point",
        "coordinates": [
          139.085,
          35.963
        ]
      },
      "properties": {
        "都道府県": "埼玉県",
        "名称": "秩父山地（武甲山）",
        "地理的特徴・成り立ち": "秩父帯石灰岩体のドーム状地形。採掘で露出。",
        "地形タイプ": "火山地形",
        "植生": "石灰岩地性草原（ススキ等）",
        "QC": "ok"
      }
    },
    {
      "type": "Feature",
      "geometry": {
        "type": "Point",
        "coordinates": [
          139.72,
          35.8
        ]
      },
      "properties": {
        "都道府県": "埼玉県",
        "名称": "荒川低地",
        "地理的特徴・成り立ち": "自然堤防・後背湿地が発達する沖積低地。",
        "地形タイプ": "氾濫原・低地",
        "植生": "ヨシ・アシ原／水田モザイク",
        "QC": "ok"
      }
    },
    {
      "type": "Feature",
      "geometry": {
        "type": "Point",
        "coordinates": [
          139.63,
          35.922
        ]
      },
      "properties": {
        "都道府県": "埼玉県",
        "名称": "大宮台地",
        "地理的特徴・成り立ち": "武蔵野台地北縁の段丘面。関東ロームに覆われる。",
        "地形タイプ": "段丘",
        "植生": "二次林（コナラ・アカマツ）",
        "QC": "ok"
      }
    },
    {
      "type": "Feature",
      "geometry": {
        "type": "Point",
        "coordinates": [
          139.485,
          35.912
        ]
      },
      "properties": {
        "都道府県": "埼玉県",
        "名称": "川越扇状地",
        "地理的特徴・成り立ち": "入間川起源の扇状地。扇端湧水帯が発達。",
        "地形タイプ": "扇状地",
        "植生": "湧水周辺の湿生群落",
        "QC": "ok"
      }
    },
    {
      "type": "Feature",
      "geometry": {
        "type": "Point",
        "coordinates": [
          139.415,
          35.78
        ]
      },
      "properties": {
        "都道府県": "埼玉県",
        "名称": "狭山丘陵",
        "地理的特徴・成り立ち": "ローム層に覆われた台地状丘陵。段丘崖が明瞭。",
        "地形タイプ": "段丘",
        "植生": "二次林（コナラ・アカマツ）",
        "QC": "ok"
      }
    },
    {
      "type": "Feature",
      "geometry": {
        "type": "Point",
        "coordinates": [
          139.39,
          36.145
        ]
      },
      "properties": {
        "都道府県": "埼玉県",
        "名称": "熊谷河岸段丘",
        "地理的特徴・成り立ち": "荒川の段丘群。気候段丘の比高差が顕著。",
        "地形タイプ": "段丘",
        "植生": "二次林（コナラ・アカマツ）",
        "QC": "ok"
      }
    },
    {
      "type": "Feature",
      "geometry": {
        "type": "Point",
        "coordinates": [
          139.79,
          35.85
        ]
      },
      "properties": {
        "都道府県": "埼玉県",
        "名称": "中川低地",
        "地理的特徴・成り立ち": "旧利根川系の氾濫原。微高地と湿地のモザイク。",
        "地形タイプ": "氾濫原・低地",
        "植生": "ヨシ・アシ原／水田モザイク",
        "QC": "ok"
      }
    },
    {
      "type": "Feature",
      "geometry": {
        "type": "Point",
        "coordinates": [
          139.191,
          36.118
        ]
      },
      "properties": {
        "都道府県": "埼玉県",
        "名称": "寄居（荒川河岸段丘）",
        "地理的特徴・成り立ち": "段丘崖が明瞭な河岸段丘。礫層厚大。",
        "地形タイプ": "段丘",
        "植生": "二次林（コナラ・アカマツ）",
        "QC": "ok"
      }
    },
    {
      "type": "Feature",
      "geometry": {
        "type": "Point",
        "coordinates": [
          139.72,
          35.94
        ]
      },
      "properties": {
        "都道府県": "埼玉県",
        "名称": "元荒川低地",
        "地理的特徴・成り立ち": "旧流路の谷底平野。軟弱地盤。",
        "地形タイプ": "氾濫原・低地",
        "植生": "ヨシ・アシ原／水田モザイク",
        "QC": "ok"
      }
    },
    {
      "type": "Feature",
      "geometry": {
        "type": "Point",
        "coordinates": [
          139.67,
          35.905
        ]
      },
      "properties": {
        "都道府県": "埼玉県",
        "名称": "見沼低地",
        "地理的特徴・成り立ち": "谷底低地の人工湿地。旧河道・遊水地。",
        "地形タイプ": "氾濫原・低地",
        "植生": "ヨシ・アシ原／水田モザイク",
        "QC": "ok"
      }
    },
    {
      "type": "Feature",
      "geometry": {
        "type": "Point",
        "coordinates": [
          139.79,
          35.868
        ]
      },
      "properties": {
        "都道府県": "埼玉県",
        "名称": "越谷低地（調整池群）",
        "地理的特徴・成り立ち": "谷底低地の人工池。沖積粘土厚い。",
        "地形タイプ": "氾濫原・低地",
        "植生": "ヨシ・アシ原／水田モザイク",
        "QC": "ok"
      }
    },
    {
      "type": "Feature",
      "geometry": {
        "type": "Point",
        "coordinates": [
          139.085,
          35.991
        ]
      },
      "properties": {
        "都道府県": "埼玉県",
        "名称": "秩父盆地",
        "地理的特徴・成り立ち": "構造性堆積盆地。段丘面が発達。",
        "地形タイプ": "段丘",
        "植生": "二次林（コナラ・アカマツ）",
        "QC": "ok"
      }
    },
    {
      "type": "Feature",
      "geometry": {
        "type": "Point",
        "coordinates": [
          139.455,
          36.14
        ]
      },
      "properties": {
        "都道府県": "埼玉県",
        "名称": "行田台地縁（古墳群周辺）",
        "地理的特徴・成り立ち": "台地縁の微高地利用。段丘礫層上の立地。",
        "地形タイプ": "段丘",
        "植生": "二次林（コナラ・アカマツ）",
        "QC": "ok"
      }
    },
    {
      "type": "Feature",
      "geometry": {
        "type": "Point",
        "coordinates": [
          139.87,
          35.84
        ]
      },
      "properties": {
        "都道府県": "埼玉県",
        "名称": "江戸川右岸低地",
        "地理的特徴・成り立ち": "谷底低地の氾濫原。自然堤防が列状。",
        "地形タイプ": "氾濫原・低地",
        "植生": "ヨシ・アシ原／水田モザイク",
        "QC": "ok"
      }
    },
    {
      "type": "Feature",
      "geometry": {
        "type": "Point",
        "coordinates": [
          139.38,
          35.83
        ]
      },
      "properties": {
        "都道府県": "埼玉県",
        "名称": "入間川扇状地",
        "地理的特徴・成り立ち": "粗粒扇状地。扇端湧水が連続。",
        "地形タイプ": "扇状地",
        "植生": "湧水周辺の湿生群落",
        "QC": "ok"
      }
    },
    {
      "type": "Feature",
      "geometry": {
        "type": "Point",
        "coordinates": [
          139.34,
          36.04
        ]
      },
      "properties": {
        "都道府県": "埼玉県",
        "名称": "荒川扇状地（比企丘陵南縁）",
        "地理的特徴・成り立ち": "広域扇状地。テフラ層を挟在。",
        "地形タイプ": "扇状地",
        "植生": "湧水周辺の湿生群落",
        "QC": "ok"
      }
    },
    {
      "type": "Feature",
      "geometry": {
        "type": "Point",
        "coordinates": [
          139.68,
          35.82
        ]
      },
      "properties": {
        "都道府県": "埼玉県",
        "名称": "戸田・蕨低地",
        "地理的特徴・成り立ち": "沖積低地の微地形。旧河道が縦横。",
        "地形タイプ": "氾濫原・低地",
        "植生": "ヨシ・アシ原／水田モザイク",
        "QC": "ok"
      }
    },
    {
      "type": "Feature",
      "geometry": {
        "type": "Point",
        "coordinates": [
          139.62,
          36.13
        ]
      },
      "properties": {
        "都道府県": "埼玉県",
        "名称": "加須低地（利根旧流路）",
        "地理的特徴・成り立ち": "三日月湖と自然堤防列。",
        "地形タイプ": "氾濫原・低地",
        "植生": "ヨシ・アシ原／水田モザイク",
        "QC": "ok"
      }
    },
    {
      "type": "Feature",
      "geometry": {
        "type": "Point",
        "coordinates": [
          139.11,
          36.155
        ]
      },
      "properties": {
        "都道府県": "埼玉県",
        "名称": "長瀞岩畳",
        "地理的特徴・成り立ち": "結晶片岩の河床平坦面。節理面露出と研磨。",
        "地形タイプ": "その他",
        "植生": "落葉広葉樹林／草原モザイク",
        "QC": "ok"
      }
    },
    {
      "type": "Feature",
      "geometry": {
        "type": "Point",
        "coordinates": [
          140.4,
          35.54
        ]
      },
      "properties": {
        "都道府県": "千葉県",
        "名称": "九十九里浜",
        "地理的特徴・成り立ち": "バリアー浜・浜堤列。沿岸漂砂が卓越。",
        "地形タイプ": "その他",
        "植生": "落葉広葉樹林／草原モザイク",
        "QC": "ok"
      }
    },
    {
      "type": "Feature",
      "geometry": {
        "type": "Point",
        "coordinates": [
          140.857,
          35.737
        ]
      },
      "properties": {
        "都道府県": "千葉県",
        "名称": "屏風ヶ浦",
        "地理的特徴・成り立ち": "海食崖が連続。更新世堆積層の汀線後退。",
        "地形タイプ": "海食崖・波食台",
        "植生": "照葉樹林（シイ・タブ）",
        "QC": "ok"
      }
    },
    {
      "type": "Feature",
      "geometry": {
        "type": "Point",
        "coordinates": [
          140.22,
          35.75
        ]
      },
      "properties": {
        "都道府県": "千葉県",
        "名称": "下総台地",
        "地理的特徴・成り立ち": "下総層群の台地。ローム被覆・谷頭侵食。",
        "地形タイプ": "台地",
        "植生": "二次林（コナラ・アカマツ）",
        "QC": "ok"
      }
    },
    {
      "type": "Feature",
      "geometry": {
        "type": "Point",
        "coordinates": [
          140.215,
          35.77
        ]
      },
      "properties": {
        "都道府県": "千葉県",
        "名称": "印旛沼",
        "地理的特徴・成り立ち": "潟湖性の内陸湖沼。古砂州内側に形成。",
        "地形タイプ": "砂州・砂嘴",
        "植生": "海浜植生（コウボウムギ・ハマヒルガオ）",
        "QC": "ok"
      }
    },
    {
      "type": "Feature",
      "geometry": {
        "type": "Point",
        "coordinates": [
          140.04,
          35.844
        ]
      },
      "properties": {
        "都道府県": "千葉県",
        "名称": "手賀沼",
        "地理的特徴・成り立ち": "谷底低地の浅湖。泥炭層が厚い。",
        "地形タイプ": "氾濫原・低地",
        "植生": "ヨシ・アシ原／水田モザイク",
        "QC": "ok"
      }
    },
    {
      "type": "Feature",
      "geometry": {
        "type": "Point",
        "coordinates": [
          139.97,
          35.67
        ]
      },
      "properties": {
        "都道府県": "千葉県",
        "名称": "三番瀬",
        "地理的特徴・成り立ち": "東京湾奥の干潟。潮汐流と細粒堆積。",
        "地形タイプ": "干潟・干拓低地",
        "植生": "塩性湿地・マングローブ・サンゴ礁",
        "QC": "ok"
      }
    },
    {
      "type": "Feature",
      "geometry": {
        "type": "Point",
        "coordinates": [
          139.908,
          35.421
        ]
      },
      "properties": {
        "都道府県": "千葉県",
        "名称": "盤洲干潟",
        "地理的特徴・成り立ち": "砂質干潟。砂州成長と潮汐チャネル。",
        "地形タイプ": "砂州・砂嘴",
        "植生": "塩性湿地・マングローブ・サンゴ礁",
        "QC": "ok"
      }
    },
    {
      "type": "Feature",
      "geometry": {
        "type": "Point",
        "coordinates": [
          140.226,
          35.32
        ]
      },
      "properties": {
        "都道府県": "千葉県",
        "名称": "養老渓谷",
        "地理的特徴・成り立ち": "凝灰岩層の峡谷。層理沿いの滝と甌穴。",
        "地形タイプ": "その他",
        "植生": "落葉広葉樹林／草原モザイク",
        "QC": "ok"
      }
    },
    {
      "type": "Feature",
      "geometry": {
        "type": "Point",
        "coordinates": [
          140.1,
          35.11
        ]
      },
      "properties": {
        "都道府県": "千葉県",
        "名称": "鴨川海成段丘",
        "地理的特徴・成り立ち": "海成段丘列。旧汀線高度から隆起速度を推定。",
        "地形タイプ": "段丘",
        "植生": "二次林（コナラ・アカマツ）",
        "QC": "ok"
      }
    },
    {
      "type": "Feature",
      "geometry": {
        "type": "Point",
        "coordinates": [
          139.857,
          34.996
        ]
      },
      "properties": {
        "都道府県": "千葉県",
        "名称": "館山湾",
        "地理的特徴・成り立ち": "侵食湾＋砂州発達。内湾堆積が静穏。",
        "地形タイプ": "砂州・砂嘴",
        "植生": "海浜植生（コウボウムギ・ハマヒルガオ）",
        "QC": "ok"
      }
    },
    {
      "type": "Feature",
      "geometry": {
        "type": "Point",
        "coordinates": [
          139.936,
          34.896
        ]
      },
      "properties": {
        "都道府県": "千葉県",
        "名称": "野島崎",
        "地理的特徴・成り立ち": "最南端の岬。花崗岩の海食崖と波蝕台。",
        "地形タイプ": "海食崖・波食台",
        "植生": "照葉樹林（シイ・タブ）",
        "QC": "ok"
      }
    },
    {
      "type": "Feature",
      "geometry": {
        "type": "Point",
        "coordinates": [
          140.867,
          35.706
        ]
      },
      "properties": {
        "都道府県": "千葉県",
        "名称": "犬吠埼",
        "地理的特徴・成り立ち": "最東端の岬。海食崖が卓越。",
        "地形タイプ": "海食崖・波食台",
        "植生": "照葉樹林（シイ・タブ）",
        "QC": "ok"
      }
    },
    {
      "type": "Feature",
      "geometry": {
        "type": "Point",
        "coordinates": [
          139.971,
          35.123
        ]
      },
      "properties": {
        "都道府県": "千葉県",
        "名称": "嶺岡帯",
        "地理的特徴・成り立ち": "蛇紋岩を含む付加体。スラスト地形が顕著。",
        "地形タイプ": "その他",
        "植生": "落葉広葉樹林／草原モザイク",
        "QC": "ok"
      }
    },
    {
      "type": "Feature",
      "geometry": {
        "type": "Point",
        "coordinates": [
          140.1,
          35.603
        ]
      },
      "properties": {
        "都道府県": "千葉県",
        "名称": "東京湾岸埋立地（千葉）",
        "地理的特徴・成り立ち": "干潟の人工埋積。圧密沈下が課題。",
        "地形タイプ": "干潟・干拓低地",
        "植生": "塩性湿地・マングローブ・サンゴ礁",
        "QC": "ok"
      }
    },
    {
      "type": "Feature",
      "geometry": {
        "type": "Point",
        "coordinates": [
          140.358,
          35.391
        ]
      },
      "properties": {
        "都道府県": "千葉県",
        "名称": "長生浜堤列",
        "地理的特徴・成り立ち": "砂州の陸側移動による浜堤列。",
        "地形タイプ": "砂州・砂嘴",
        "植生": "海浜植生（コウボウムギ・ハマヒルガオ）",
        "QC": "ok"
      }
    },
    {
      "type": "Feature",
      "geometry": {
        "type": "Point",
        "coordinates": [
          139.92,
          35.33
        ]
      },
      "properties": {
        "都道府県": "千葉県",
        "名称": "君津丘陵",
        "地理的特徴・成り立ち": "上総層群の侵食丘陵。谷頭浸食と地すべり。",
        "地形タイプ": "その他",
        "植生": "落葉広葉樹林／草原モザイク",
        "QC": "ok"
      }
    },
    {
      "type": "Feature",
      "geometry": {
        "type": "Point",
        "coordinates": [
          140.318,
          35.774
        ]
      },
      "properties": {
        "都道府県": "千葉県",
        "名称": "成田台地",
        "地理的特徴・成り立ち": "下総台地の一部。ローム被覆と崖線（谷津）発達。",
        "地形タイプ": "台地",
        "植生": "二次林（コナラ・アカマツ）",
        "QC": "ok"
      }
    },
    {
      "type": "Feature",
      "geometry": {
        "type": "Point",
        "coordinates": [
          140.391,
          35.222
        ]
      },
      "properties": {
        "都道府県": "千葉県",
        "名称": "夷隅川下流平野",
        "地理的特徴・成り立ち": "谷底平野が拡幅する遷移域。氾濫原が発達。",
        "地形タイプ": "氾濫原・低地",
        "植生": "ヨシ・アシ原／水田モザイク",
        "QC": "ok"
      }
    },
    {
      "type": "Feature",
      "geometry": {
        "type": "Point",
        "coordinates": [
          140.859,
          35.728
        ]
      },
      "properties": {
        "都道府県": "千葉県",
        "名称": "銚子層群露頭",
        "地理的特徴・成り立ち": "鮮新—更新統が観察できる海食崖露頭。",
        "地形タイプ": "海食崖・波食台",
        "植生": "照葉樹林（シイ・タブ）",
        "QC": "ok"
      }
    },
    {
      "type": "Feature",
      "geometry": {
        "type": "Point",
        "coordinates": [
          139.407,
          35.706
        ]
      },
      "properties": {
        "都道府県": "東京都",
        "名称": "武蔵野台地（立川段丘）",
        "地理的特徴・成り立ち": "多摩川系の河成段丘。ローム被覆が厚い。",
        "地形タイプ": "段丘",
        "植生": "二次林（コナラ・アカマツ）",
        "QC": "ok"
      }
    },
    {
      "type": "Feature",
      "geometry": {
        "type": "Point",
        "coordinates": [
          139.617,
          35.642
        ]
      },
      "properties": {
        "都道府県": "東京都",
        "名称": "国分寺崖線",
        "地理的特徴・成り立ち": "台地縁の侵食崖線。湧水が連続。",
        "地形タイプ": "台地",
        "植生": "二次林（コナラ・アカマツ）",
        "QC": "ok"
      }
    },
    {
      "type": "Feature",
      "geometry": {
        "type": "Point",
        "coordinates": [
          139.74,
          35.56
        ]
      },
      "properties": {
        "都道府県": "東京都",
        "名称": "多摩川下流氾濫原",
        "地理的特徴・成り立ち": "蛇行跡・自然堤防・旧河道が発達。",
        "地形タイプ": "氾濫原・低地",
        "植生": "ヨシ・アシ原／水田モザイク",
        "QC": "ok"
      }
    },
    {
      "type": "Feature",
      "geometry": {
        "type": "Point",
        "coordinates": [
          139.81,
          35.71
        ]
      },
      "properties": {
        "都道府県": "東京都",
        "名称": "荒川低地・隅田川三角州",
        "地理的特徴・成り立ち": "デルタ低地。細粒堆積と人工改変。",
        "地形タイプ": "三角州",
        "植生": "ヨシ・アシ原／水田モザイク",
        "QC": "ok"
      }
    },
    {
      "type": "Feature",
      "geometry": {
        "type": "Point",
        "coordinates": [
          139.82,
          35.68
        ]
      },
      "properties": {
        "都道府県": "東京都",
        "名称": "下町低地（深川）",
        "地理的特徴・成り立ち": "干拓・埋立が卓越した谷底低地。",
        "地形タイプ": "干潟・干拓低地",
        "植生": "塩性湿地・マングローブ・サンゴ礁",
        "QC": "ok"
      }
    },
    {
      "type": "Feature",
      "geometry": {
        "type": "Point",
        "coordinates": [
          139.394,
          34.751
        ]
      },
      "properties": {
        "都道府県": "東京都",
        "名称": "伊豆大島（三原山）",
        "地理的特徴・成り立ち": "玄武岩質火山島。中央火口丘をもつ。",
        "地形タイプ": "火山地形",
        "植生": "高山・亜高山帯（ハイマツ・ダケカンバ）",
        "QC": "ok"
      }
    },
    {
      "type": "Feature",
      "geometry": {
        "type": "Point",
        "coordinates": [
          139.529,
          34.078
        ]
      },
      "properties": {
        "都道府県": "東京都",
        "名称": "三宅島",
        "地理的特徴・成り立ち": "玄武岩質成層火山島。カルデラ内に新旧火口。",
        "地形タイプ": "火山地形",
        "植生": "高山・亜高山帯（ハイマツ・ダケカンバ）",
        "QC": "ok"
      }
    },
    {
      "type": "Feature",
      "geometry": {
        "type": "Point",
        "coordinates": [
          139.785,
          33.112
        ]
      },
      "properties": {
        "都道府県": "東京都",
        "名称": "八丈島",
        "地理的特徴・成り立ち": "二重火山。溶岩台地と海食崖が発達。",
        "地形タイプ": "火山地形",
        "植生": "高山・亜高山帯（ハイマツ・ダケカンバ）",
        "QC": "ok"
      }
    },
    {
      "type": "Feature",
      "geometry": {
        "type": "Point",
        "coordinates": [
          142.207,
          27.087
        ]
      },
      "properties": {
        "都道府県": "東京都",
        "名称": "小笠原父島",
        "地理的特徴・成り立ち": "背弧側の海洋島。海食崖と石灰岩台地。",
        "地形タイプ": "カルスト",
        "植生": "石灰岩地性草原（ススキ等）",
        "QC": "ok"
      }
    },
    {
      "type": "Feature",
      "geometry": {
        "type": "Point",
        "coordinates": [
          139.036,
          35.801
        ]
      },
      "properties": {
        "都道府県": "東京都",
        "名称": "奥多摩山地",
        "地理的特徴・成り立ち": "秩父帯の隆起山地。急峻な樹枝状谷。",
        "地形タイプ": "その他",
        "植生": "落葉広葉樹林／草原モザイク",
        "QC": "ok"
      }
    },
    {
      "type": "Feature",
      "geometry": {
        "type": "Point",
        "coordinates": [
          139.205,
          35.723
        ]
      },
      "properties": {
        "都道府県": "東京都",
        "名称": "秋川渓谷",
        "地理的特徴・成り立ち": "火山岩・砂岩の峡谷。下刻が進行。",
        "地形タイプ": "火山地形",
        "植生": "高山・亜高山帯（ハイマツ・ダケカンバ）",
        "QC": "ok"
      }
    },
    {
      "type": "Feature",
      "geometry": {
        "type": "Point",
        "coordinates": [
          139.045,
          35.844
        ]
      },
      "properties": {
        "都道府県": "東京都",
        "名称": "日原鍾乳洞",
        "地理的特徴・成り立ち": "石灰岩の大規模鍾乳洞。カルスト地形。",
        "地形タイプ": "カルスト",
        "植生": "石灰岩地性草原（ススキ等）",
        "QC": "ok"
      }
    },
    {
      "type": "Feature",
      "geometry": {
        "type": "Point",
        "coordinates": [
          139.775,
          35.55
        ]
      },
      "properties": {
        "都道府県": "東京都",
        "名称": "羽田沖干潟（消長域）",
        "地理的特徴・成り立ち": "東京湾奥の干潟域。埋立前の浅海の痕跡。",
        "地形タイプ": "干潟・干拓低地",
        "植生": "塩性湿地・マングローブ・サンゴ礁",
        "QC": "ok"
      }
    },
    {
      "type": "Feature",
      "geometry": {
        "type": "Point",
        "coordinates": [
          139.82,
          35.67
        ]
      },
      "properties": {
        "都道府県": "東京都",
        "名称": "江東内部河川網",
        "地理的特徴・成り立ち": "デルタ低地の開削水路群。",
        "地形タイプ": "三角州",
        "植生": "ヨシ・アシ原／水田モザイク",
        "QC": "ok"
      }
    },
    {
      "type": "Feature",
      "geometry": {
        "type": "Point",
        "coordinates": [
          139.7,
          35.69
        ]
      },
      "properties": {
        "都道府県": "東京都",
        "名称": "舌状台地間の谷底低地",
        "地理的特徴・成り立ち": "湧水湿地が点在する谷底低地。",
        "地形タイプ": "氾濫原・低地",
        "植生": "ヨシ・アシ原／水田モザイク",
        "QC": "ok"
      }
    },
    {
      "type": "Feature",
      "geometry": {
        "type": "Point",
        "coordinates": [
          139.46,
          35.613
        ]
      },
      "properties": {
        "都道府県": "東京都",
        "名称": "多摩丘陵北縁",
        "地理的特徴・成り立ち": "ローム被覆の侵食小起伏面。",
        "地形タイプ": "その他",
        "植生": "落葉広葉樹林／草原モザイク",
        "QC": "ok"
      }
    },
    {
      "type": "Feature",
      "geometry": {
        "type": "Point",
        "coordinates": [
          139.795,
          35.64
        ]
      },
      "properties": {
        "都道府県": "東京都",
        "名称": "東京湾岸低地（有明・豊洲）",
        "地理的特徴・成り立ち": "埋立人工低地。軟弱粘土の圧密地盤。",
        "地形タイプ": "干潟・干拓低地",
        "植生": "塩性湿地・マングローブ・サンゴ礁",
        "QC": "ok"
      }
    },
    {
      "type": "Feature",
      "geometry": {
        "type": "Point",
        "coordinates": [
          139.76,
          32.467
        ]
      },
      "properties": {
        "都道府県": "東京都",
        "名称": "青ヶ島",
        "地理的特徴・成り立ち": "二重カルデラの火山島。",
        "地形タイプ": "火山地形",
        "植生": "高山・亜高山帯（ハイマツ・ダケカンバ）",
        "QC": "ok"
      }
    },
    {
      "type": "Feature",
      "geometry": {
        "type": "Point",
        "coordinates": [
          142.153,
          26.644
        ]
      },
      "properties": {
        "都道府県": "東京都",
        "名称": "小笠原母島",
        "地理的特徴・成り立ち": "海洋島火山体。海食崖と段丘礫層。",
        "地形タイプ": "火山地形",
        "植生": "高山・亜高山帯（ハイマツ・ダケカンバ）",
        "QC": "ok"
      }
    },
    {
      "type": "Feature",
      "geometry": {
        "type": "Point",
        "coordinates": [
          139.013,
          35.794
        ]
      },
      "properties": {
        "都道府県": "東京都",
        "名称": "奥多摩湖",
        "地理的特徴・成り立ち": "谷を堰止めた人造湖。峡谷の溺谷化。",
        "地形タイプ": "その他",
        "植生": "落葉広葉樹林／草原モザイク",
        "QC": "ok"
      }
    },
    {
      "type": "Feature",
      "geometry": {
        "type": "Point",
        "coordinates": [
          139.022,
          35.232
        ]
      },
      "properties": {
        "都道府県": "神奈川県",
        "名称": "箱根カルデラ",
        "地理的特徴・成り立ち": "大規模陥没カルデラ。火砕流台地と中央火口丘群。",
        "地形タイプ": "火山地形",
        "植生": "高山・亜高山帯（ハイマツ・ダケカンバ）",
        "QC": "ok"
      }
    },
    {
      "type": "Feature",
      "geometry": {
        "type": "Point",
        "coordinates": [
          139.026,
          35.204
        ]
      },
      "properties": {
        "都道府県": "神奈川県",
        "名称": "芦ノ湖",
        "地理的特徴・成り立ち": "火山性堰止湖。溶岩流による堰止め。",
        "地形タイプ": "火山地形",
        "植生": "高山・亜高山帯（ハイマツ・ダケカンバ）",
        "QC": "ok"
      }
    },
    {
      "type": "Feature",
      "geometry": {
        "type": "Point",
        "coordinates": [
          139.169,
          35.469
        ]
      },
      "properties": {
        "都道府県": "神奈川県",
        "名称": "丹沢山地",
        "地理的特徴・成り立ち": "伊豆弧の付加・衝突に伴う隆起山地。",
        "地形タイプ": "その他",
        "植生": "落葉広葉樹林／草原モザイク",
        "QC": "ok"
      }
    },
    {
      "type": "Feature",
      "geometry": {
        "type": "Point",
        "coordinates": [
          139.36,
          35.39
        ]
      },
      "properties": {
        "都道府県": "神奈川県",
        "名称": "相模平野",
        "地理的特徴・成り立ち": "相模川の扇状地・氾濫原からなる沖積平野。",
        "地形タイプ": "扇状地",
        "植生": "ヨシ・アシ原／水田モザイク",
        "QC": "ok"
      }
    },
    {
      "type": "Feature",
      "geometry": {
        "type": "Point",
        "coordinates": [
          139.36,
          35.44
        ]
      },
      "properties": {
        "都道府県": "神奈川県",
        "名称": "相模川扇状地（厚木）",
        "地理的特徴・成り立ち": "粗粒扇状地。扇端湧水帯。",
        "地形タイプ": "扇状地",
        "植生": "湧水周辺の湿生群落",
        "QC": "ok"
      }
    },
    {
      "type": "Feature",
      "geometry": {
        "type": "Point",
        "coordinates": [
          139.621,
          35.489
        ]
      },
      "properties": {
        "都道府県": "神奈川県",
        "名称": "横浜下末吉台地",
        "地理的特徴・成り立ち": "海成段丘（下末吉面）。最終間氷期の汀線。",
        "地形タイプ": "段丘",
        "植生": "二次林（コナラ・アカマツ）",
        "QC": "ok"
      }
    },
    {
      "type": "Feature",
      "geometry": {
        "type": "Point",
        "coordinates": [
          139.268,
          35.299
        ]
      },
      "properties": {
        "都道府県": "神奈川県",
        "名称": "大磯丘陵",
        "地理的特徴・成り立ち": "堆積岩の緩斜面丘陵。段丘崖と谷頭侵食。",
        "地形タイプ": "段丘",
        "植生": "二次林（コナラ・アカマツ）",
        "QC": "ok"
      }
    },
    {
      "type": "Feature",
      "geometry": {
        "type": "Point",
        "coordinates": [
          139.481,
          35.311
        ]
      },
      "properties": {
        "都道府県": "神奈川県",
        "名称": "湘南海岸",
        "地理的特徴・成り立ち": "沿岸漂砂卓越の砂浜海岸。浜堤列が連続。",
        "地形タイプ": "その他",
        "植生": "落葉広葉樹林／草原モザイク",
        "QC": "ok"
      }
    },
    {
      "type": "Feature",
      "geometry": {
        "type": "Point",
        "coordinates": [
          139.542,
          35.312
        ]
      },
      "properties": {
        "都道府県": "神奈川県",
        "名称": "鎌倉由比ヶ浜扇状地",
        "地理的特徴・成り立ち": "小規模扇状地が海岸に接する。",
        "地形タイプ": "扇状地",
        "植生": "湧水周辺の湿生群落",
        "QC": "ok"
      }
    },
    {
      "type": "Feature",
      "geometry": {
        "type": "Point",
        "coordinates": [
          139.637,
          35.205
        ]
      },
      "properties": {
        "都道府県": "神奈川県",
        "名称": "三浦半島断層帯",
        "地理的特徴・成り立ち": "活断層系。右横ずれと逆断層の複合変位。",
        "地形タイプ": "断層地形",
        "植生": "落葉広葉樹林／草原モザイク",
        "QC": "ok"
      }
    },
    {
      "type": "Feature",
      "geometry": {
        "type": "Point",
        "coordinates": [
          139.616,
          35.155
        ]
      },
      "properties": {
        "都道府県": "神奈川県",
        "名称": "三浦半島海成段丘",
        "地理的特徴・成り立ち": "旧汀線高度の差から短周期隆起を示す段丘列。",
        "地形タイプ": "段丘",
        "植生": "二次林（コナラ・アカマツ）",
        "QC": "ok"
      }
    },
    {
      "type": "Feature",
      "geometry": {
        "type": "Point",
        "coordinates": [
          139.741,
          35.257
        ]
      },
      "properties": {
        "都道府県": "神奈川県",
        "名称": "横須賀・観音崎",
        "地理的特徴・成り立ち": "東京湾口の岬。海食崖と波蝕台。",
        "地形タイプ": "リアス・沈水海岸",
        "植生": "照葉樹林（シイ・タブ）",
        "QC": "ok"
      }
    },
    {
      "type": "Feature",
      "geometry": {
        "type": "Point",
        "coordinates": [
          139.145,
          35.158
        ]
      },
      "properties": {
        "都道府県": "神奈川県",
        "名称": "相模湾海食崖（真鶴基部）",
        "地理的特徴・成り立ち": "溶岩台地の海食地形。離水ベンチ。",
        "地形タイプ": "火山地形",
        "植生": "高山・亜高山帯（ハイマツ・ダケカンバ）",
        "QC": "ok"
      }
    },
    {
      "type": "Feature",
      "geometry": {
        "type": "Point",
        "coordinates": [
          139.007,
          35.259
        ]
      },
      "properties": {
        "都道府県": "神奈川県",
        "名称": "金時山（箱根外輪山）",
        "地理的特徴・成り立ち": "溶岩円頂丘の残丘。",
        "地形タイプ": "火山地形",
        "植生": "高山・亜高山帯（ハイマツ・ダケカンバ）",
        "QC": "ok"
      }
    },
    {
      "type": "Feature",
      "geometry": {
        "type": "Point",
        "coordinates": [
          139.468,
          35.47
        ]
      },
      "properties": {
        "都道府県": "神奈川県",
        "名称": "境川低地",
        "地理的特徴・成り立ち": "谷底低地。蛇行・旧河道が明瞭。",
        "地形タイプ": "氾濫原・低地",
        "植生": "ヨシ・アシ原／水田モザイク",
        "QC": "ok"
      }
    },
    {
      "type": "Feature",
      "geometry": {
        "type": "Point",
        "coordinates": [
          139.67,
          35.523
        ]
      },
      "properties": {
        "都道府県": "神奈川県",
        "名称": "鶴見川下流氾濫原",
        "地理的特徴・成り立ち": "三角州性低地。自然堤防・後背湿地。",
        "地形タイプ": "三角州",
        "植生": "ヨシ・アシ原／水田モザイク",
        "QC": "ok"
      }
    },
    {
      "type": "Feature",
      "geometry": {
        "type": "Point",
        "coordinates": [
          139.455,
          35.546
        ]
      },
      "properties": {
        "都道府県": "神奈川県",
        "名称": "多摩丘陵南端",
        "地理的特徴・成り立ち": "ローム被覆の侵食小起伏面。",
        "地形タイプ": "その他",
        "植生": "落葉広葉樹林／草原モザイク",
        "QC": "ok"
      }
    },
    {
      "type": "Feature",
      "geometry": {
        "type": "Point",
        "coordinates": [
          139.154,
          35.263
        ]
      },
      "properties": {
        "都道府県": "神奈川県",
        "名称": "小田原扇状地",
        "地理的特徴・成り立ち": "早川・酒匂川の扇状地群。",
        "地形タイプ": "扇状地",
        "植生": "湧水周辺の湿生群落",
        "QC": "ok"
      }
    },
    {
      "type": "Feature",
      "geometry": {
        "type": "Point",
        "coordinates": [
          139.58,
          35.275
        ]
      },
      "properties": {
        "都道府県": "神奈川県",
        "名称": "逗子・葉山海岸",
        "地理的特徴・成り立ち": "花崗岩・堆積岩の海食崖。小規模砂浜が点在。",
        "地形タイプ": "海食崖・波食台",
        "植生": "照葉樹林（シイ・タブ）",
        "QC": "ok"
      }
    },
    {
      "type": "Feature",
      "geometry": {
        "type": "Point",
        "coordinates": [
          139.035,
          37.916
        ]
      },
      "properties": {
        "都道府県": "新潟県",
        "名称": "越後平野",
        "地理的特徴・成り立ち": "信濃川・阿賀野川の複合三角州。圧密沈下が著しい沖積低地。",
        "地形タイプ": "三角州",
        "植生": "ヨシ・アシ原／水田モザイク",
        "QC": "ok"
      }
    },