{
  "type": "FeatureCollection",
  "features": [
    {
      "type": "Feature",
      "geometry": {
        "type": "Point",
        "coordinates": [
          141.35,
          43.07
        ]
      },
      "properties": {
        "都道府県": "北海道",
        "名称": "石狩平野",
        "地理的特徴・成り立ち": "石狩川の扇状地〜三角州性沖積平野。自然堤防・後背湿地がモザイク。",
        "地形タイプ": "扇状地"
      }
    },
    {
      "type": "Feature",
      "geometry": {
        "type": "Point",
        "coordinates": [
          141.36,
          43.05
        ]
      },
      "properties": {
        "都道府県": "北海道",
        "名称": "札幌扇状地（豊平川）",
        "地理的特徴・成り立ち": "粗粒扇状地。扇端湧水と旧河道が点在。",
        "地形タイプ": "扇状地"
      }
    },
    {
      "type": "Feature",
      "geometry": {
        "type": "Point",
        "coordinates": [
          141.39,
          42.75
        ]
      },
      "properties": {
        "都道府県": "北海道",
        "名称": "支笏カルデラ（支笏湖）",
        "地理的特徴・成り立ち": "大規模カルデラ湖。外輪山に火山斜面崩壊地形。",
        "地形タイプ": "火山地形"
      }
    },
    {
      "type": "Feature",
      "geometry": {
        "type": "Point",
        "coordinates": [
          140.85,
          42.58
        ]
      },
      "properties": {
        "都道府県": "北海道",
        "名称": "洞爺カルデラ（洞爺湖）",
        "地理的特徴・成り立ち": "カルデラ湖。中央火口丘（中島）を伴う。",
        "地形タイプ": "火山地形"
      }
    },
    {
      "type": "Feature",
      "geometry": {
        "type": "Point",
        "coordinates": [
          140.84,
          42.54
        ]
      },
      "properties": {
        "都道府県": "北海道",
        "名称": "有珠山",
        "地理的特徴・成り立ち": "活火山。溶岩ドームと噴気地形。",
        "地形タイプ": "火山地形"
      }
    },
    {
      "type": "Feature",
      "geometry": {
        "type": "Point",
        "coordinates": [
          140.81,
          42.83
        ]
      },
      "properties": {
        "都道府県": "北海道",
        "名称": "羊蹄山",
        "地理的特徴・成り立ち": "成層火山の円錐形。放射状谷が顕著。",
        "地形タイプ": "火山地形"
      }
    },
    {
      "type": "Feature",
      "geometry": {
        "type": "Point",
        "coordinates": [
          142.86,
          43.67
        ]
      },
      "properties": {
        "都道府県": "北海道",
        "名称": "大雪山系（旭岳）",
        "地理的特徴・成り立ち": "溶岩台地上に周氷河地形。圏谷・雪食地形の痕跡。",
        "地形タイプ": "火山地形"
      }
    },
    {
      "type": "Feature",
      "geometry": {
        "type": "Point",
        "coordinates": [
          142.62,
          43.42
        ]
      },
      "properties": {
        "都道府県": "北海道",
        "名称": "十勝岳",
        "地理的特徴・成り立ち": "活火山。火砕流堆積とラハール地形。",
        "地形タイプ": "火山地形"
      }
    },
    {
      "type": "Feature",
      "geometry": {
        "type": "Point",
        "coordinates": [
          145.13,
          44.07
        ]
      },
      "properties": {
        "都道府県": "北海道",
        "名称": "知床半島（羅臼岳）",
        "地理的特徴・成り立ち": "火山性山地と急峻海食崖。氷蝕・周氷河の痕跡。",
        "地形タイプ": "火山地形"
      }
    },
    {
      "type": "Feature",
      "geometry": {
        "type": "Point",
        "coordinates": [
          141.74,
          45.08
        ]
      },
      "properties": {
        "都道府県": "北海道",
        "名称": "サロベツ原野",
        "地理的特徴・成り立ち": "泥炭湿原。海退と砂丘列背後の湿地形成。",
        "地形タイプ": "砂丘"
      }
    },
    {
      "type": "Feature",
      "geometry": {
        "type": "Point",
        "coordinates": [
          141.8,
          45.25
        ]
      },
      "properties": {
        "都道府県": "北海道",
        "名称": "宗谷丘陵",
        "地理的特徴・成り立ち": "周氷河性のなだらかな丘陵（ローム台地）。",
        "地形タイプ": "台地"
      }
    },
    {
      "type": "Feature",
      "geometry": {
        "type": "Point",
        "coordinates": [
          145.35,
          43.57
        ]
      },
      "properties": {
        "都道府県": "北海道",
        "名称": "野付半島砂嘴",
        "地理的特徴・成り立ち": "発達した湾口砂嘴。潟湖（野付湾）を区切る。",
        "地形タイプ": "砂州・砂嘴"
      }
    },
    {
      "type": "Feature",
      "geometry": {
        "type": "Point",
        "coordinates": [
          144.38,
          43.1
        ]
      },
      "properties": {
        "都道府県": "北海道",
        "名称": "釧路湿原",
        "地理的特徴・成り立ち": "河川蛇行の氾濫原湿地。泥炭層が厚い。",
        "地形タイプ": "氾濫原・低地"
      }
    },
    {
      "type": "Feature",
      "geometry": {
        "type": "Point",
        "coordinates": [
          143.36,
          42.9
        ]
      },
      "properties": {
        "都道府県": "北海道",
        "名称": "十勝平野海岸段丘",
        "地理的特徴・成り立ち": "隆起性海成段丘列。旧汀線高度が連続。",
        "地形タイプ": "海岸段丘"
      }
    },
    {
      "type": "Feature",
      "geometry": {
        "type": "Point",
        "coordinates": [
          144.57,
          43.57
        ]
      },
      "properties": {
        "都道府県": "北海道",
        "名称": "摩周カルデラ（摩周湖）",
        "地理的特徴・成り立ち": "カルデラ湖。急峻な外輪山と透明度高い湖水。",
        "地形タイプ": "火山地形"
      }
    },
    {
      "type": "Feature",
      "geometry": {
        "type": "Point",
        "coordinates": [
          144.1,
          43.42
        ]
      },
      "properties": {
        "都道府県": "北海道",
        "名称": "阿寒湖・雌阿寒岳",
        "地理的特徴・成り立ち": "火山群と火口原。溶岩ドーム・マールが点在。",
        "地形タイプ": "火山地形"
      }
    },
    {
      "type": "Feature",
      "geometry": {
        "type": "Point",
        "coordinates": [
          141.24,
          45.18
        ]
      },
      "properties": {
        "都道府県": "北海道",
        "名称": "利尻山",
        "地理的特徴・成り立ち": "海上孤立火山。円錐形の成層火山と海食崖。",
        "地形タイプ": "火山地形"
      }
    },
    {
      "type": "Feature",
      "geometry": {
        "type": "Point",
        "coordinates": [
          140.49,
          43.34
        ]
      },
      "properties": {
        "都道府県": "北海道",
        "名称": "積丹半島海食崖",
        "地理的特徴・成り立ち": "玄武岩質岩体の海食崖・波食台。",
        "地形タイプ": "海食崖・波食台"
      }
    },
    {
      "type": "Feature",
      "geometry": {
        "type": "Point",
        "coordinates": [
          142.73,
          42.72
        ]
      },
      "properties": {
        "都道府県": "北海道",
        "名称": "日高山脈幌尻岳",
        "地理的特徴・成り立ち": "衝上断層帯の急峻山地。構造線に沿う直線谷。",
        "地形タイプ": "断層地形"
      }
    },
    {
      "type": "Feature",
      "geometry": {
        "type": "Point",
        "coordinates": [
          145.1,
          43.15
        ]
      },
      "properties": {
        "都道府県": "北海道",
        "名称": "根釧台地",
        "地理的特徴・成り立ち": "火山灰に覆われた台地。放射状谷と湿地が点在。",
        "地形タイプ": "火山地形"
      }
    },
    {
      "type": "Feature",
      "geometry": {
        "type": "Point",
        "coordinates": [
          140.88,
          40.66
        ]
      },
      "properties": {
        "都道府県": "青森県",
        "名称": "八甲田山",
        "地理的特徴・成り立ち": "火山群。泥流・ラハール地形と高層湿原。",
        "地形タイプ": "火山地形"
      }
    },
    {
      "type": "Feature",
      "geometry": {
        "type": "Point",
        "coordinates": [
          140.88,
          40.46
        ]
      },
      "properties": {
        "都道府県": "青森県",
        "名称": "十和田カルデラ（十和田湖）",
        "地理的特徴・成り立ち": "二重カルデラ湖。外輪山に火砕流台地。",
        "地形タイプ": "火山地形"
      }
    },
    {
      "type": "Feature",
      "geometry": {
        "type": "Point",
        "coordinates": [
          140.93,
          40.45
        ]
      },
      "properties": {
        "都道府県": "青森県",
        "名称": "奥入瀬渓流",
        "地理的特徴・成り立ち": "溶結凝灰岩を刻む谷。河床に段差滝が連続。",
        "地形タイプ": "火山地形"
      }
    },
    {
      "type": "Feature",
      "geometry": {
        "type": "Point",
        "coordinates": [
          140.2,
          40.55
        ]
      },
      "properties": {
        "都道府県": "青森県",
        "名称": "白神山地（津軽峠）",
        "地理的特徴・成り立ち": "深い樹枝状谷。中新統堆積岩の侵食山地。",
        "地形タイプ": "その他"
      }
    },
    {
      "type": "Feature",
      "geometry": {
        "type": "Point",
        "coordinates": [
          140.86,
          41.35
        ]
      },
      "properties": {
        "都道府県": "青森県",
        "名称": "下北半島仏ヶ浦",
        "地理的特徴・成り立ち": "凝灰岩の海食奇岩群。差別侵食が顕著。",
        "地形タイプ": "海食崖・波食台"
      }
    },
    {
      "type": "Feature",
      "geometry": {
        "type": "Point",
        "coordinates": [
          141.47,
          41.5
        ]
      },
      "properties": {
        "都道府県": "青森県",
        "名称": "尻屋崎海食崖",
        "地理的特徴・成り立ち": "外洋性海食崖。強い沿岸流と波浪。",
        "地形タイプ": "海食崖・波食台"
      }
    },
    {
      "type": "Feature",
      "geometry": {
        "type": "Point",
        "coordinates": [
          140.34,
          40.78
        ]
      },
      "properties": {
        "都道府県": "青森県",
        "名称": "鯵ヶ沢海岸段丘",
        "地理的特徴・成り立ち": "日本海側の隆起性海岸段丘列。",
        "地形タイプ": "海岸段丘"
      }
    },
    {
      "type": "Feature",
      "geometry": {
        "type": "Point",
        "coordinates": [
          140.47,
          40.77
        ]
      },
      "properties": {
        "都道府県": "青森県",
        "名称": "津軽平野",
        "地理的特徴・成り立ち": "氾濫原と砂丘列の複合平野。",
        "地形タイプ": "砂丘"
      }
    },
    {
      "type": "Feature",
      "geometry": {
        "type": "Point",
        "coordinates": [
          140.8,
          40.85
        ]
      },
      "properties": {
        "都道府県": "青森県",
        "名称": "陸奥湾沿岸低地",
        "地理的特徴・成り立ち": "沈水性内湾の埋積低地。",
        "地形タイプ": "リアス・沈水海岸"
      }
    },
    {
      "type": "Feature",
      "geometry": {
        "type": "Point",
        "coordinates": [
          140.3,
          40.65
        ]
      },
      "properties": {
        "都道府県": "青森県",
        "名称": "岩木山",
        "地理的特徴・成り立ち": "成層火山。放射状谷と寄生火口群。",
        "地形タイプ": "火山地形"
      }
    },
    {
      "type": "Feature",
      "geometry": {
        "type": "Point",
        "coordinates": [
          141.57,
          40.53
        ]
      },
      "properties": {
        "都道府県": "青森県",
        "名称": "八戸海岸（種差）",
        "地理的特徴・成り立ち": "砂浜・岩礁のモザイク海岸。",
        "地形タイプ": "その他"
      }
    },
    {
      "type": "Feature",
      "geometry": {
        "type": "Point",
        "coordinates": [
          141.3,
          40.67
        ]
      },
      "properties": {
        "都道府県": "青森県",
        "名称": "小川原湖",
        "地理的特徴・成り立ち": "砂州で外洋と隔てられた海跡湖。",
        "地形タイプ": "砂州・砂嘴"
      }
    },
    {
      "type": "Feature",
      "geometry": {
        "type": "Point",
        "coordinates": [
          141.36,
          40.8
        ]
      },
      "properties": {
        "都道府県": "青森県",
        "名称": "むつ小川原砂丘",
        "地理的特徴・成り立ち": "風成砂丘列。背後に潟湖跡。",
        "地形タイプ": "砂丘"
      }
    },
    {
      "type": "Feature",
      "geometry": {
        "type": "Point",
        "coordinates": [
          140.95,
          40.95
        ]
      },
      "properties": {
        "都道府県": "青森県",
        "名称": "夏泊半島",
        "地理的特徴・成り立ち": "溶岩台地の半島。海食崖が発達。",
        "地形タイプ": "火山地形"
      }
    },
    {
      "type": "Feature",
      "geometry": {
        "type": "Point",
        "coordinates": [
          140.15,
          40.9
        ]
      },
      "properties": {
        "都道府県": "青森県",
        "名称": "七里長浜砂丘",
        "地理的特徴・成り立ち": "長大な海岸砂丘。季節風で発達。",
        "地形タイプ": "砂丘"
      }
    },
    {
      "type": "Feature",
      "geometry": {
        "type": "Point",
        "coordinates": [
          140.91,
          41.53
        ]
      },
      "properties": {
        "都道府県": "青森県",
        "名称": "大間崎",
        "地理的特徴・成り立ち": "津軽海峡の岬。潮流強く海底洗掘。",
        "地形タイプ": "リアス・沈水海岸"
      }
    },
    {
      "type": "Feature",
      "geometry": {
        "type": "Point",
        "coordinates": [
          140.57,
          40.64
        ]
      },
      "properties": {
        "都道府県": "青森県",
        "名称": "黒石扇状地",
        "地理的特徴・成り立ち": "中規模扇状地。扇端湧水を伴う。",
        "地形タイプ": "扇状地"
      }
    },
    {
      "type": "Feature",
      "geometry": {
        "type": "Point",
        "coordinates": [
          141.37,
          40.7
        ]
      },
      "properties": {
        "都道府県": "青森県",
        "名称": "三沢平野",
        "地理的特徴・成り立ち": "河成・海成の複合低地。",
        "地形タイプ": "氾濫原・低地"
      }
    },
    {
      "type": "Feature",
      "geometry": {
        "type": "Point",
        "coordinates": [
          140.6,
          41.05
        ]
      },
      "properties": {
        "都道府県": "青森県",
        "名称": "外ヶ浜海岸",
        "地理的特徴・成り立ち": "砂州・浜堤列が発達。",
        "地形タイプ": "砂州・砂嘴"
      }
    },
    {
      "type": "Feature",
      "geometry": {
        "type": "Point",
        "coordinates": [
          141.26,
          41.47
        ]
      },
      "properties": {
        "都道府県": "青森県",
        "名称": "尻労安山岩海岸",
        "地理的特徴・成り立ち": "安山岩の海食崖・波食台。",
        "地形タイプ": "海食崖・波食台"
      }
    },
    {
      "type": "Feature",
      "geometry": {
        "type": "Point",
        "coordinates": [
          141.47,
          39.67
        ]
      },
      "properties": {
        "都道府県": "岩手県",
        "名称": "北上山地（早池峰山）",
        "地理的特徴・成り立ち": "蛇紋岩・古期岩類の隆起山地。穏やかな小起伏面。",
        "地形タイプ": "その他"
      }
    },
    {
      "type": "Feature",
      "geometry": {
        "type": "Point",
        "coordinates": [
          141.97,
          39.92
        ]
      },
      "properties": {
        "都道府県": "岩手県",
        "名称": "三陸海岸北部（北山崎）",
        "地理的特徴・成り立ち": "高海食崖のリアス海岸。離水ベンチが顕著。",
        "地形タイプ": "リアス・沈水海岸"
      }
    },
    {
      "type": "Feature",
      "geometry": {
        "type": "Point",
        "coordinates": [
          141.96,
          39.64
        ]
      },
      "properties": {
        "都道府県": "岩手県",
        "名称": "浄土ヶ浜",
        "地理的特徴・成り立ち": "石灰岩・流紋岩の海食小景観。海食洞とスタック。",
        "地形タイプ": "カルスト"
      }
    },
    {
      "type": "Feature",
      "geometry": {
        "type": "Point",
        "coordinates": [
          141.96,
          39.64
        ]
      },
      "properties": {
        "都道府県": "岩手県",
        "名称": "宮古湾",
        "地理的特徴・成り立ち": "沈水谷の湾入。砂州で湾口が制御。",
        "地形タイプ": "砂州・砂嘴"
      }
    },
    {
      "type": "Feature",
      "geometry": {
        "type": "Point",
        "coordinates": [
          141.97,
          39.85
        ]
      },
      "properties": {
        "都道府県": "岩手県",
        "名称": "田老海岸段丘",
        "地理的特徴・成り立ち": "隆起性海岸段丘。旧汀線高度が連続。",
        "地形タイプ": "海岸段丘"
      }
    },
    {
      "type": "Feature",
      "geometry": {
        "type": "Point",
        "coordinates": [
          142.0,
          39.55
        ]
      },
      "properties": {
        "都道府県": "岩手県",
        "名称": "重茂半島",
        "地理的特徴・成り立ち": "溶岩台地の半島。海食崖が発達。",
        "地形タイプ": "火山地形"
      }
    },
    {
      "type": "Feature",
      "geometry": {
        "type": "Point",
        "coordinates": [
          141.91,
          39.36
        ]
      },
      "properties": {
        "都道府県": "岩手県",
        "名称": "大槌湾",
        "地理的特徴・成り立ち": "リアス湾。内湾堆積と砂州発達。",
        "地形タイプ": "砂州・砂嘴"
      }
    },
    {
      "type": "Feature",
      "geometry": {
        "type": "Point",
        "coordinates": [
          141.88,
          39.27
        ]
      },
      "properties": {
        "都道府県": "岩手県",
        "名称": "釜石湾",
        "地理的特徴・成り立ち": "沈水谷の湾入。埋積で低地拡大。",
        "地形タイプ": "リアス・沈水海岸"
      }
    },
    {
      "type": "Feature",
      "geometry": {
        "type": "Point",
        "coordinates": [
          141.72,
          39.05
        ]
      },
      "properties": {
        "都道府県": "岩手県",
        "名称": "大船渡湾",
        "地理的特徴・成り立ち": "リアス湾。砂州と干潟が発達。",
        "地形タイプ": "砂州・砂嘴"
      }
    },
    {
      "type": "Feature",
      "geometry": {
        "type": "Point",
        "coordinates": [
          141.66,
          39.03
        ]
      },
      "properties": {
        "都道府県": "岩手県",
        "名称": "陸前高田広田湾",
        "地理的特徴・成り立ち": "砂州で閉塞しやすい浅い湾。",
        "地形タイプ": "砂州・砂嘴"
      }
    },
    {
      "type": "Feature",
      "geometry": {
        "type": "Point",
        "coordinates": [
          141.53,
          39.33
        ]
      },
      "properties": {
        "都道府県": "岩手県",
        "名称": "遠野盆地",
        "地理的特徴・成り立ち": "堆積性盆地。段丘面と扇状地がモザイク。",
        "地形タイプ": "扇状地"
      }
    },
    {
      "type": "Feature",
      "geometry": {
        "type": "Point",
        "coordinates": [
          141.15,
          39.71
        ]
      },
      "properties": {
        "都道府県": "岩手県",
        "名称": "盛岡扇状地（北上川左岸）",
        "地理的特徴・成り立ち": "中規模扇状地。扇端湧水が点在。",
        "地形タイプ": "扇状地"
      }
    },
    {
      "type": "Feature",
      "geometry": {
        "type": "Point",
        "coordinates": [
          140.98,
          39.7
        ]
      },
      "properties": {
        "都道府県": "岩手県",
        "名称": "雫石盆地",
        "地理的特徴・成り立ち": "堆積盆地。湖成段丘と火山灰層が厚い。",
        "地形タイプ": "火山地形"
      }
    },
    {
      "type": "Feature",
      "geometry": {
        "type": "Point",
        "coordinates": [
          140.85,
          39.96
        ]
      },
      "properties": {
        "都道府県": "岩手県",
        "名称": "八幡平",
        "地理的特徴・成り立ち": "火山台地。火口原湿原と硫気地形。",
        "地形タイプ": "火山地形"
      }
    },
    {
      "type": "Feature",
      "geometry": {
        "type": "Point",
        "coordinates": [
          141.0,
          39.85
        ]
      },
      "properties": {
        "都道府県": "岩手県",
        "名称": "岩手山",
        "地理的特徴・成り立ち": "成層火山。寄生火口と火砕流台地。",
        "地形タイプ": "火山地形"
      }
    },
    {
      "type": "Feature",
      "geometry": {
        "type": "Point",
        "coordinates": [
          141.77,
          40.19
        ]
      },
      "properties": {
        "都道府県": "岩手県",
        "名称": "久慈海岸",
        "地理的特徴・成り立ち": "砂岩・頁岩の海食崖。海食洞が散在。",
        "地形タイプ": "海食崖・波食台"
      }
    },
    {
      "type": "Feature",
      "geometry": {
        "type": "Point",
        "coordinates": [
          141.13,
          39.43
        ]
      },
      "properties": {
        "都道府県": "岩手県",
        "名称": "北上川下流平野（矢巾〜花巻）",
        "地理的特徴・成り立ち": "氾濫原と自然堤防の発達。",
        "地形タイプ": "氾濫原・低地"
      }
    },
    {
      "type": "Feature",
      "geometry": {
        "type": "Point",
        "coordinates": [
          141.93,
          39.9
        ]
      },
      "properties": {
        "都道府県": "岩手県",
        "名称": "小本川谷底平野",
        "地理的特徴・成り立ち": "山地の小規模沖積錐と段丘。",
        "地形タイプ": "扇状地"
      }
    },
    {
      "type": "Feature",
      "geometry": {
        "type": "Point",
        "coordinates": [
          141.58,
          39.23
        ]
      },
      "properties": {
        "都道府県": "岩手県",
        "名称": "住田町世田米段丘",
        "地理的特徴・成り立ち": "河成段丘群。テラス配列が明瞭。",
        "地形タイプ": "段丘"
      }
    },
    {
      "type": "Feature",
      "geometry": {
        "type": "Point",
        "coordinates": [
          141.09,
          40.0
        ]
      },
      "properties": {
        "都道府県": "岩手県",
        "名称": "安比高原",
        "地理的特徴・成り立ち": "火山性台地。溶岩流地形と湿原。",
        "地形タイプ": "火山地形"
      }
    },
    {
      "type": "Feature",
      "geometry": {
        "type": "Point",
        "coordinates": [
          140.9,
          38.27
        ]
      },
      "properties": {
        "都道府県": "宮城県",
        "名称": "仙台平野",
        "地理的特徴・成り立ち": "阿武隈川・名取川の三角州性平野。浜堤列と後背湿地。",
        "地形タイプ": "三角州"
      }
    },
    {
      "type": "Feature",
      "geometry": {
        "type": "Point",
        "coordinates": [
          141.06,
          38.37
        ]
      },
      "properties": {
        "都道府県": "宮城県",
        "名称": "松島湾",
        "地理的特徴・成り立ち": "沈水谷・多島海景観。砂州で湾口制御。",
        "地形タイプ": "砂州・砂嘴"
      }
    },
    {
      "type": "Feature",
      "geometry": {
        "type": "Point",
        "coordinates": [
          141.3,
          38.44
        ]
      },
      "properties": {
        "都道府県": "宮城県",
        "名称": "石巻平野",
        "地理的特徴・成り立ち": "北上川デルタ性平野。干潟・砂州が発達。",
        "地形タイプ": "三角州"
      }
    },
    {
      "type": "Feature",
      "geometry": {
        "type": "Point",
        "coordinates": [
          141.44,
          38.44
        ]
      },
      "properties": {
        "都道府県": "宮城県",
        "名称": "女川湾",
        "地理的特徴・成り立ち": "リアス湾。急峻背後山地。",
        "地形タイプ": "リアス・沈水海岸"
      }
    },
    {
      "type": "Feature",
      "geometry": {
        "type": "Point",
        "coordinates": [
          141.57,
          38.9
        ]
      },
      "properties": {
        "都道府県": "宮城県",
        "名称": "気仙沼湾",
        "地理的特徴・成り立ち": "沈水谷の湾入。砂州発達。",
        "地形タイプ": "砂州・砂嘴"
      }
    },
    {
      "type": "Feature",
      "geometry": {
        "type": "Point",
        "coordinates": [
          141.64,
          38.28
        ]
      },
      "properties": {
        "都道府県": "宮城県",
        "名称": "金華山周辺",
        "地理的特徴・成り立ち": "花崗岩質島嶼の海食崖。",
        "地形タイプ": "海食崖・波食台"
      }
    },
    {
      "type": "Feature",
      "geometry": {
        "type": "Point",
        "coordinates": [
          141.45,
          38.69
        ]
      },
      "properties": {
        "都道府県": "宮城県",
        "名称": "南三陸志津川湾",
        "地理的特徴・成り立ち": "リアス湾。内湾堆積と干潟。",
        "地形タイプ": "干潟・干拓低地"
      }
    },
    {
      "type": "Feature",
      "geometry": {
        "type": "Point",
        "coordinates": [
          140.72,
          38.73
        ]
      },
      "properties": {
        "都道府県": "宮城県",
        "名称": "鳴子カルデラ",
        "地理的特徴・成り立ち": "カルデラ地形と温泉活動。火砕流台地。",
        "地形タイプ": "火山地形"
      }
    },
    {
      "type": "Feature",
      "geometry": {
        "type": "Point",
        "coordinates": [
          140.44,
          38.14
        ]
      },
      "properties": {
        "都道府県": "宮城県",
        "名称": "蔵王連峰（御釜）",
        "地理的特徴・成り立ち": "火口湖と溶岩円頂丘群。",
        "地形タイプ": "火山地形"
      }
    },
    {
      "type": "Feature",
      "geometry": {
        "type": "Point",
        "coordinates": [
          140.62,
          38.45
        ]
      },
      "properties": {
        "都道府県": "宮城県",
        "名称": "船形山地",
        "地理的特徴・成り立ち": "古期花崗岩山地。周氷河性の岩屑斜面。",
        "地形タイプ": "花崗岩侵食地形"
      }
    },
    {
      "type": "Feature",
      "geometry": {
        "type": "Point",
        "coordinates": [
          140.61,
          38.0
        ]
      },
      "properties": {
        "都道府県": "宮城県",
        "名称": "白石盆地",
        "地理的特徴・成り立ち": "堆積性盆地。段丘面が連続。",
        "地形タイプ": "段丘"
      }
    },
    {
      "type": "Feature",
      "geometry": {
        "type": "Point",
        "coordinates": [
          140.77,
          38.17
        ]
      },
      "properties": {
        "都道府県": "宮城県",
        "名称": "名取扇状地",
        "地理的特徴・成り立ち": "中規模扇状地。扇端湧水が点在。",
        "地形タイプ": "扇状地"
      }
    },
    {
      "type": "Feature",
      "geometry": {
        "type": "Point",
        "coordinates": [
          140.9,
          38.29
        ]
      },
      "properties": {
        "都道府県": "宮城県",
        "名称": "長町‐利府断層帯沿い段丘",
        "地理的特徴・成り立ち": "活断層沿いの河成段丘。比高差明瞭。",
        "地形タイプ": "段丘"
      }
    },
    {
      "type": "Feature",
      "geometry": {
        "type": "Point",
        "coordinates": [
          140.91,
          38.34
        ]
      },
      "properties": {
        "都道府県": "宮城県",
        "名称": "七北田川下流低地",
        "地理的特徴・成り立ち": "氾濫原・自然堤防の発達。",
        "地形タイプ": "氾濫原・低地"
      }
    },
    {
      "type": "Feature",
      "geometry": {
        "type": "Point",
        "coordinates": [
          140.95,
          38.57
        ]
      },
      "properties": {
        "都道府県": "宮城県",
        "名称": "大崎平野",
        "地理的特徴・成り立ち": "旧湖の干拓・埋積平野。",
        "地形タイプ": "干潟・干拓低地"
      }
    },
    {
      "type": "Feature",
      "geometry": {
        "type": "Point",
        "coordinates": [
          141.54,
          38.28
        ]
      },
      "properties": {
        "都道府県": "宮城県",
        "名称": "牡鹿半島海食崖",
        "地理的特徴・成り立ち": "外洋性の海食崖・波食台。",
        "地形タイプ": "海食崖・波食台"
      }
    },
    {
      "type": "Feature",
      "geometry": {
        "type": "Point",
        "coordinates": [
          141.2,
          38.7
        ]
      },
      "properties": {
        "都道府県": "宮城県",
        "名称": "登米丘陵",
        "地理的特徴・成り立ち": "第三紀層の侵食丘陵。",
        "地形タイプ": "その他"
      }
    },
    {
      "type": "Feature",
      "geometry": {
        "type": "Point",
        "coordinates": [
          141.15,
          38.56
        ]
      },
      "properties": {
        "都道府県": "宮城県",
        "名称": "涌谷砂丘",
        "地理的特徴・成り立ち": "内陸砂丘列。",
        "地形タイプ": "砂丘"
      }
    },
    {
      "type": "Feature",
      "geometry": {
        "type": "Point",
        "coordinates": [
          140.98,
          38.22
        ]
      },
      "properties": {
        "都道府県": "宮城県",
        "名称": "仙台湾沿岸砂州",
        "地理的特徴・成り立ち": "長大な砂州・浜堤列が発達。",
        "地形タイプ": "砂州・砂嘴"
      }
    },
    {
      "type": "Feature",
      "geometry": {
        "type": "Point",
        "coordinates": [
          140.8,
          38.95
        ]
      },
      "properties": {
        "都道府県": "宮城県",
        "名称": "栗駒山",
        "地理的特徴・成り立ち": "火山体。山麓火砕流台地が広がる。",
        "地形タイプ": "火山地形"
      }
    },
    {
      "type": "Feature",
      "geometry": {
        "type": "Point",
        "coordinates": [
          139.7,
          39.93
        ]
      },
      "properties": {
        "都道府県": "秋田県",
        "名称": "男鹿半島入道崎海岸段丘",
        "地理的特徴・成り立ち": "隆起性海岸段丘列。旧汀線高度が明瞭。",
        "地形タイプ": "海岸段丘"
      }
    },
    {
      "type": "Feature",
      "geometry": {
        "type": "Point",
        "coordinates": [
          139.95,
          39.93
        ]
      },
      "properties": {
        "都道府県": "秋田県",
        "名称": "寒風山",
        "地理的特徴・成り立ち": "スコリア丘。火山噴出物の侵食丘陵。",
        "地形タイプ": "火山地形"
      }
    },
    {
      "type": "Feature",
      "geometry": {
        "type": "Point",
        "coordinates": [
          140.05,
          40.0
        ]
      },
      "properties": {
        "都道府県": "秋田県",
        "名称": "八郎潟干拓地",
        "地理的特徴・成り立ち": "湖沼干拓の低地。泥炭・粘土層が厚い。",
        "地形タイプ": "干潟・干拓低地"
      }
    },
    {
      "type": "Feature",
      "geometry": {
        "type": "Point",
        "coordinates": [
          140.1,
          39.72
        ]
      },
      "properties": {
        "都道府県": "秋田県",
        "名称": "秋田平野",
        "地理的特徴・成り立ち": "雄物川の三角州性平野。浜堤列と旧河道。",
        "地形タイプ": "三角州"
      }
    },
    {
      "type": "Feature",
      "geometry": {
        "type": "Point",
        "coordinates": [
          140.05,
          39.39
        ]
      },
      "properties": {
        "都道府県": "秋田県",
        "名称": "本荘平野",
        "地理的特徴・成り立ち": "子吉川の氾濫原。自然堤防・後背湿地。",
        "地形タイプ": "氾濫原・低地"
      }
    },
    {
      "type": "Feature",
      "geometry": {
        "type": "Point",
        "coordinates": [
          140.04,
          39.11
        ]
      },
      "properties": {
        "都道府県": "秋田県",
        "名称": "鳥海山南麓扇状地",
        "地理的特徴・成り立ち": "粗粒扇状地。扇端湧水帯が発達。",
        "地形タイプ": "扇状地"
      }
    },
    {
      "type": "Feature",
      "geometry": {
        "type": "Point",
        "coordinates": [
          140.14,
          39.29
        ]
      },
      "properties": {
        "都道府県": "秋田県",
        "名称": "由利原台地",
        "地理的特徴・成り立ち": "火砕流台地。ローム層厚い。",
        "地形タイプ": "火山地形"
      }
    },
    {
      "type": "Feature",
      "geometry": {
        "type": "Point",
        "coordinates": [
          140.7,
          39.75
        ]
      },
      "properties": {
        "都道府県": "秋田県",
        "名称": "田沢湖",
        "地理的特徴・成り立ち": "陥没性の深湖。周囲に火山性地形。",
        "地形タイプ": "火山地形"
      }
    },
    {
      "type": "Feature",
      "geometry": {
        "type": "Point",
        "coordinates": [
          140.03,
          40.19
        ]
      },
      "properties": {
        "都道府県": "秋田県",
        "名称": "米代川下流平野",
        "地理的特徴・成り立ち": "氾濫原と三角州の複合。",
        "地形タイプ": "三角州"
      }
    },
    {
      "type": "Feature",
      "geometry": {
        "type": "Point",
        "coordinates": [
          140.0,
          40.25
        ]
      },
      "properties": {
        "都道府県": "秋田県",
        "名称": "能代海岸砂丘",
        "地理的特徴・成り立ち": "風成砂丘列。季節風で発達。",
        "地形タイプ": "砂丘"
      }
    },
    {
      "type": "Feature",
      "geometry": {
        "type": "Point",
        "coordinates": [
          140.23,
          40.37
        ]
      },
      "properties": {
        "都道府県": "秋田県",
        "名称": "白神山地秋田側",
        "地理的特徴・成り立ち": "深い樹枝状谷の侵食山地。",
        "地形タイプ": "その他"
      }
    },
    {
      "type": "Feature",
      "geometry": {
        "type": "Point",
        "coordinates": [
          140.1,
          39.08
        ]
      },
      "properties": {
        "都道府県": "秋田県",
        "名称": "鳥海山矢島口",
        "地理的特徴・成り立ち": "成層火山の寄生火口群と溶岩流。",
        "地形タイプ": "火山地形"
      }
    },
    {
      "type": "Feature",
      "geometry": {
        "type": "Point",
        "coordinates": [
          140.32,
          39.76
        ]
      },
      "properties": {
        "都道府県": "秋田県",
        "名称": "太平山地",
        "地理的特徴・成り立ち": "古期堆積岩の隆起山地。",
        "地形タイプ": "その他"
      }
    },
    {
      "type": "Feature",
      "geometry": {
        "type": "Point",
        "coordinates": [
          139.9,
          39.11
        ]
      },
      "properties": {
        "都道府県": "秋田県",
        "名称": "象潟九十九島（砂州・潟湖跡）",
        "地理的特徴・成り立ち": "離水潟湖群。砂州発達と地震性隆起の痕跡。",
        "地形タイプ": "砂州・砂嘴"
      }
    },
    {
      "type": "Feature",
      "geometry": {
        "type": "Point",
        "coordinates": [
          140.2,
          39.98
        ]
      },
      "properties": {
        "都道府県": "秋田県",
        "名称": "上小阿仁盆地",
        "地理的特徴・成り立ち": "堆積性内陸盆地。段丘面が卓越。",
        "地形タイプ": "段丘"
      }
    },
    {
      "type": "Feature",
      "geometry": {
        "type": "Point",
        "coordinates": [
          140.57,
          39.31
        ]
      },
      "properties": {
        "都道府県": "秋田県",
        "名称": "雄物川扇状地（横手）",
        "地理的特徴・成り立ち": "中規模扇状地。段丘化が進む。",
        "地形タイプ": "扇状地"
      }
    },
    {
      "type": "Feature",
      "geometry": {
        "type": "Point",
        "coordinates": [
          140.89,
          40.56
        ]
      },
      "properties": {
        "都道府県": "秋田県",
        "名称": "田代平高原",
        "地理的特徴・成り立ち": "火山性高原。湿原と溶岩台地。",
        "地形タイプ": "火山地形"
      }
    },
    {
      "type": "Feature",
      "geometry": {
        "type": "Point",
        "coordinates": [
          140.29,
          40.09
        ]
      },
      "properties": {
        "都道府県": "秋田県",
        "名称": "小阿仁川谷底平野",
        "地理的特徴・成り立ち": "山地の小規模沖積錐と扇状地。",
        "地形タイプ": "扇状地"
      }
    },
    {
      "type": "Feature",
      "geometry": {
        "type": "Point",
        "coordinates": [
          139.95,
          39.95
        ]
      },
      "properties": {
        "都道府県": "秋田県",
        "名称": "男鹿真山",
        "地理的特徴・成り立ち": "火山岩の急峻山地。周氷河痕跡。",
        "地形タイプ": "火山地形"
      }
    },
    {
      "type": "Feature",
      "geometry": {
        "type": "Point",
        "coordinates": [
          139.92,
          39.35
        ]
      },
      "properties": {
        "都道府県": "秋田県",
        "名称": "本荘由利海岸砂州",
        "地理的特徴・成り立ち": "沿岸漂砂の砂州・浜堤列。",
        "地形タイプ": "砂州・砂嘴"
      }
    },
    {
      "type": "Feature",
      "geometry": {
        "type": "Point",
        "coordinates": [
          139.84,
          38.86
        ]
      },
      "properties": {
        "都道府県": "山形県",
        "名称": "庄内平野",
        "地理的特徴・成り立ち": "最上川デルタ性平野。浜堤列と旧河道が発達。",
        "地形タイプ": "三角州"
      }
    },
    {
      "type": "Feature",
      "geometry": {
        "type": "Point",
        "coordinates": [
          140.05,
          39.0
        ]
      },
      "properties": {
        "都道府県": "山形県",
        "名称": "鳥海山東麓扇状地",
        "地理的特徴・成り立ち": "粗粒扇状地。扇端湧水が顕著。",
        "地形タイプ": "扇状地"
      }
    },
    {
      "type": "Feature",
      "geometry": {
        "type": "Point",
        "coordinates": [
          140.28,
          38.35
        ]
      },
      "properties": {
        "都道府県": "山形県",
        "名称": "最上川中流段丘（寒河江）",
        "地理的特徴・成り立ち": "河成段丘群。テラス配列が明瞭。",
        "地形タイプ": "段丘"
      }
    },
    {
      "type": "Feature",
      "geometry": {
        "type": "Point",
        "coordinates": [
          140.01,
          38.54
        ]
      },
      "properties": {
        "都道府県": "山形県",
        "名称": "月山溶岩台地",
        "地理的特徴・成り立ち": "火山性溶岩台地と高層湿原。",
        "地形タイプ": "火山地形"
      }
    },
    {
      "type": "Feature",
      "geometry": {
        "type": "Point",
        "coordinates": [
          139.76,
          38.28
        ]
      },
      "properties": {
        "都道府県": "山形県",
        "名称": "朝日連峰",
        "地理的特徴・成り立ち": "古期堆積岩の隆起山地。深い樹枝状谷。",
        "地形タイプ": "その他"
      }
    },
    {
      "type": "Feature",
      "geometry": {
        "type": "Point",
        "coordinates": [
          139.95,
          38.51
        ]
      },
      "properties": {
        "都道府県": "山形県",
        "名称": "出羽三山（湯殿山）",
        "地理的特徴・成り立ち": "火山群。火口原と溶岩流。",
        "地形タイプ": "火山地形"
      }
    },
    {
      "type": "Feature",
      "geometry": {
        "type": "Point",
        "coordinates": [
          140.34,
          38.27
        ]
      },
      "properties": {
        "都道府県": "山形県",
        "名称": "山形盆地",
        "地理的特徴・成り立ち": "構造性堆積盆地。扇状地と氾濫原がモザイク。",
        "地形タイプ": "扇状地"
      }
    },
    {
      "type": "Feature",
      "geometry": {
        "type": "Point",
        "coordinates": [
          140.14,
          38.06
        ]
      },
      "properties": {
        "都道府県": "山形県",
        "名称": "置賜盆地",
        "地理的特徴・成り立ち": "内陸盆地。段丘面と扇状地の複合。",
        "地形タイプ": "扇状地"
      }
    },
    {
      "type": "Feature",
      "geometry": {
        "type": "Point",
        "coordinates": [
          139.83,
          38.88
        ]
      },
      "properties": {
        "都道府県": "山形県",
        "名称": "酒田海岸砂丘",
        "地理的特徴・成り立ち": "風成砂丘列。背後に潟湖跡。",
        "地形タイプ": "砂丘"
      }
    },
    {
      "type": "Feature",
      "geometry": {
        "type": "Point",
        "coordinates": [
          139.55,
          39.21
        ]
      },
      "properties": {
        "都道府県": "山形県",
        "名称": "飛島",
        "地理的特徴・成り立ち": "孤立小島。海食崖と波食台。",
        "地形タイプ": "海食崖・波食台"
      }
    },
    {
      "type": "Feature",
      "geometry": {
        "type": "Point",
        "coordinates": [
          140.02,
          38.2
        ]
      },
      "properties": {
        "都道府県": "山形県",
        "名称": "白鷹丘陵",
        "地理的特徴・成り立ち": "第三紀層の侵食丘陵。",
        "地形タイプ": "その他"
      }
    },
    {
      "type": "Feature",
      "geometry": {
        "type": "Point",
        "coordinates": [
          140.44,
          38.15
        ]
      },
      "properties": {
        "都道府県": "山形県",
        "名称": "蔵王火山体（山形側）",
        "地理的特徴・成り立ち": "火山性地形。段丘上に火山灰堆積。",
        "地形タイプ": "火山地形"
      }
    },
    {
      "type": "Feature",
      "geometry": {
        "type": "Point",
        "coordinates": [
          140.02,
          38.65
        ]
      },
      "properties": {
        "都道府県": "山形県",
        "名称": "最上峡",
        "地理的特徴・成り立ち": "河谷の浸食峡谷。蛇行谷と狭窄部。",
        "地形タイプ": "その他"
      }
    },
    {
      "type": "Feature",
      "geometry": {
        "type": "Point",
        "coordinates": [
          140.28,
          38.33
        ]
      },
      "properties": {
        "都道府県": "山形県",
        "名称": "寒河江扇状地下流域",
        "地理的特徴・成り立ち": "中規模扇状地。湧水帯が連続。",
        "地形タイプ": "扇状地"
      }
    },
    {
      "type": "Feature",
      "geometry": {
        "type": "Point",
        "coordinates": [
          139.83,
          38.73
        ]
      },
      "properties": {
        "都道府県": "山形県",
        "名称": "鶴岡扇状地",
        "地理的特徴・成り立ち": "粗粒扇状地。扇端湧水。",
        "地形タイプ": "扇状地"
      }
    },
    {
      "type": "Feature",
      "geometry": {
        "type": "Point",
        "coordinates": [
          140.12,
          37.92
        ]
      },
      "properties": {
        "都道府県": "山形県",
        "名称": "米沢盆地段丘",
        "地理的特徴・成り立ち": "盆地内の段丘群。",
        "地形タイプ": "段丘"
      }
    },
    {
      "type": "Feature",
      "geometry": {
        "type": "Point",
        "coordinates": [
          140.24,
          38.86
        ]
      },
      "properties": {
        "都道府県": "山形県",
        "名称": "真室川谷底平野",
        "地理的特徴・成り立ち": "小規模沖積錐と扇状地の組。",
        "地形タイプ": "扇状地"
      }
    },
    {
      "type": "Feature",
      "geometry": {
        "type": "Point",
        "coordinates": [
          140.3,
          38.76
        ]
      },
      "properties": {
        "都道府県": "山形県",
        "名称": "最上川下流氾濫原（新庄）",
        "地理的特徴・成り立ち": "氾濫原。自然堤防と後背湿地。",
        "地形タイプ": "氾濫原・低地"
      }
    },
    {
      "type": "Feature",
      "geometry": {
        "type": "Point",
        "coordinates": [
          139.82,
          38.82
        ]
      },
      "properties": {
        "都道府県": "山形県",
        "名称": "湯野浜海岸",
        "地理的特徴・成り立ち": "直線状の砂浜・砂州が連続。",
        "地形タイプ": "砂州・砂嘴"
      }
    },
    {
      "type": "Feature",
      "geometry": {
        "type": "Point",
        "coordinates": [
          139.94,
          38.47
        ]
      },
      "properties": {
        "都道府県": "山形県",
        "名称": "六十里越分水嶺",
        "地理的特徴・成り立ち": "火山性高原の分水界。",
        "地形タイプ": "火山地形"
      }
    },
    {
      "type": "Feature",
      "geometry": {
        "type": "Point",
        "coordinates": [
          139.93,
          37.49
        ]
      },
      "properties": {
        "都道府県": "福島県",
        "名称": "会津盆地",
        "地理的特徴・成り立ち": "堆積性盆地。段丘面と扇状地がモザイク。",
        "地形タイプ": "扇状地"
      }
    },
    {
      "type": "Feature",
      "geometry": {
        "type": "Point",
        "coordinates": [
          140.13,
          37.55
        ]
      },
      "properties": {
        "都道府県": "福島県",
        "名称": "猪苗代湖",
        "地理的特徴・成り立ち": "断層湖。周囲に湖成段丘が発達。",
        "地形タイプ": "段丘"
      }
    },
    {
      "type": "Feature",
      "geometry": {
        "type": "Point",
        "coordinates": [
          140.07,
          37.6
        ]
      },
      "properties": {
        "都道府県": "福島県",
        "名称": "磐梯山",
        "地理的特徴・成り立ち": "成層火山。山体崩壊と岩なだれ堆積。",
        "地形タイプ": "火山地形"
      }
    },
    {
      "type": "Feature",
      "geometry": {
        "type": "Point",
        "coordinates": [
          140.08,
          37.62
        ]
      },
      "properties": {
        "都道府県": "福島県",
        "名称": "裏磐梯五色沼群",
        "地理的特徴・成り立ち": "岩なだれ堆積上の堰止湖群。",
        "地形タイプ": "その他"
      }
    },
    {
      "type": "Feature",
      "geometry": {
        "type": "Point",
        "coordinates": [
          140.38,
          37.4
        ]
      },
      "properties": {
        "都道府県": "福島県",
        "名称": "郡山扇状地",
        "地理的特徴・成り立ち": "中規模扇状地。扇端湧水が点在。",
        "地形タイプ": "扇状地"
      }
    },
    {
      "type": "Feature",
      "geometry": {
        "type": "Point",
        "coordinates": [
          140.67,
          37.4
        ]
      },
      "properties": {
        "都道府県": "福島県",
        "名称": "阿武隈山地",
        "地理的特徴・成り立ち": "花崗岩の小起伏山地。風化トア・残丘。",
        "地形タイプ": "花崗岩侵食地形"
      }
    },
    {
      "type": "Feature",
      "geometry": {
        "type": "Point",
        "coordinates": [
          140.93,
          37.0
        ]
      },
      "properties": {
        "都道府県": "福島県",
        "名称": "いわき沿岸海岸段丘",
        "地理的特徴・成り立ち": "隆起性海岸段丘列。旧汀線が明瞭。",
        "地形タイプ": "海岸段丘"
      }
    },
    {
      "type": "Feature",
      "geometry": {
        "type": "Point",
        "coordinates": [
          140.96,
          37.8
        ]
      },
      "properties": {
        "都道府県": "福島県",
        "名称": "相馬中村低地",
        "地理的特徴・成り立ち": "氾濫原と砂州の複合低地。",
        "地形タイプ": "砂州・砂嘴"
      }
    },
    {
      "type": "Feature",
      "geometry": {
        "type": "Point",
        "coordinates": [
          139.43,
          37.34
        ]
      },
      "properties": {
        "都道府県": "福島県",
        "名称": "只見川峡谷",
        "地理的特徴・成り立ち": "深いV字谷。構造線に沿う直線谷。",
        "地形タイプ": "断層地形"
      }
    },
    {
      "type": "Feature",
      "geometry": {
        "type": "Point",
        "coordinates": [
          140.2,
          37.13
        ]
      },
      "properties": {
        "都道府県": "福島県",
        "名称": "白河盆地",
        "地理的特徴・成り立ち": "堆積盆地。段丘と扇状地の複合。",
        "地形タイプ": "扇状地"
      }
    },
    {
      "type": "Feature",
      "geometry": {
        "type": "Point",
        "coordinates": [
          140.9,
          36.95
        ]
      },
      "properties": {
        "都道府県": "福島県",
        "名称": "小名浜湾",
        "地理的特徴・成り立ち": "沈水谷の湾入。砂州で湾口制御。",
        "地形タイプ": "砂州・砂嘴"
      }
    },
    {
      "type": "Feature",
      "geometry": {
        "type": "Point",
        "coordinates": [
          140.98,
          37.22
        ]
      },
      "properties": {
        "都道府県": "福島県",
        "名称": "広野台地",
        "地理的特徴・成り立ち": "海成段丘の離水台地。ローム被覆。",
        "地形タイプ": "段丘"
      }
    },
    {
      "type": "Feature",
      "geometry": {
        "type": "Point",
        "coordinates": [
          140.93,
          37.67
        ]
      },
      "properties": {
        "都道府県": "福島県",
        "名称": "相馬野馬追原野",
        "地理的特徴・成り立ち": "砂丘・浜堤と後背湿地の平野。",
        "地形タイプ": "砂丘"
      }
    },
    {
      "type": "Feature",
      "geometry": {
        "type": "Point",
        "coordinates": [
          140.75,
          37.63
        ]
      },
      "properties": {
        "都道府県": "福島県",
        "名称": "飯舘高原",
        "地理的特徴・成り立ち": "侵食小起伏面の高原。",
        "地形タイプ": "台地"
      }
    },
    {
      "type": "Feature",
      "geometry": {
        "type": "Point",
        "coordinates": [
          140.29,
          37.63
        ]
      },
      "properties": {
        "都道府県": "福島県",
        "名称": "安達太良山",
        "地理的特徴・成り立ち": "成層火山。火山性侵食谷が発達。",
        "地形タイプ": "火山地形"
      }
    },
    {
      "type": "Feature",
      "geometry": {
        "type": "Point",
        "coordinates": [
          140.45,
          37.59
        ]
      },
      "properties": {
        "都道府県": "福島県",
        "名称": "二本松扇状地",
        "地理的特徴・成り立ち": "扇状地。扇端湧水帯が連続。",
        "地形タイプ": "扇状地"
      }
    },
    {
      "type": "Feature",
      "geometry": {
        "type": "Point",
        "coordinates": [
          139.86,
          37.65
        ]
      },
      "properties": {
        "都道府県": "福島県",
        "名称": "喜多方扇状地",
        "地理的特徴・成り立ち": "粗粒扇状地。伏流水豊富。",
        "地形タイプ": "扇状地"
      }
    },
    {
      "type": "Feature",
      "geometry": {
        "type": "Point",
        "coordinates": [
          140.05,
          37.46
        ]
      },
      "properties": {
        "都道府県": "福島県",
        "名称": "猪苗代湖南岸砂州",
        "地理的特徴・成り立ち": "湖浜の砂州・浜堤列。",
        "地形タイプ": "砂州・砂嘴"
      }
    },
    {
      "type": "Feature",
      "geometry": {
        "type": "Point",
        "coordinates": [
          140.9,
          36.93
        ]
      },
      "properties": {
        "都道府県": "福島県",
        "名称": "いわき久之浜海岸",
        "地理的特徴・成り立ち": "砂浜と海食崖が交互。",
        "地形タイプ": "海食崖・波食台"
      }
    },
    {
      "type": "Feature",
      "geometry": {
        "type": "Point",
        "coordinates": [
          140.37,
          37.3
        ]
      },
      "properties": {
        "都道府県": "福島県",
        "名称": "中通り段丘面（須賀川）",
        "地理的特徴・成り立ち": "河成段丘群の連続。",
        "地形タイプ": "段丘"
      }
    },
    {
      "type": "Feature",
      "geometry": {
        "type": "Point",
        "coordinates": [
          140.35,
          36.05
        ]
      },
      "properties": {
        "都道府県": "茨城県",
        "名称": "霞ヶ浦（西浦）",
        "地理的特徴・成り立ち": "砂州で外洋と隔てられた海跡湖の淡水化。湖成堆積が厚い。",
        "地形タイプ": "砂州・砂嘴"
      }
    },
    {
      "type": "Feature",
      "geometry": {
        "type": "Point",
        "coordinates": [
          140.59,
          35.99
        ]
      },
      "properties": {
        "都道府県": "茨城県",
        "名称": "北浦",
        "地理的特徴・成り立ち": "潟湖の淡水化。砂州・浜堤列の内側に発達。",
        "地形タイプ": "砂州・砂嘴"
      }
    },
    {
      "type": "Feature",
      "geometry": {
        "type": "Point",
        "coordinates": [
          140.72,
          35.82
        ]
      },
      "properties": {
        "都道府県": "茨城県",
        "名称": "鹿島灘海岸砂丘（神栖）",
        "地理的特徴・成り立ち": "外洋性の風成砂丘列。沿岸漂砂の供給で成長。",
        "地形タイプ": "砂丘"
      }
    },
    {
      "type": "Feature",
      "geometry": {
        "type": "Point",
        "coordinates": [
          140.56,
          35.94
        ]
      },
      "properties": {
        "都道府県": "茨城県",
        "名称": "利根川下流デルタ（潮来）",
        "地理的特徴・成り立ち": "河口三角州。干潟と砂州が発達。",
        "地形タイプ": "三角州"
      }
    },
    {
      "type": "Feature",
      "geometry": {
        "type": "Point",
        "coordinates": [
          140.58,
          36.31
        ]
      },
      "properties": {
        "都道府県": "茨城県",
        "名称": "大洗海岸",
        "地理的特徴・成り立ち": "花崗岩質岩礁の海食地形と砂浜のモザイク。",
        "地形タイプ": "海食崖・波食台"
      }
    },
    {
      "type": "Feature",
      "geometry": {
        "type": "Point",
        "coordinates": [
          140.51,
          36.32
        ]
      },
      "properties": {
        "都道府県": "茨城県",
        "名称": "那珂川下流氾濫原",
        "地理的特徴・成り立ち": "自然堤防・後背湿地が連続する低地。",
        "地形タイプ": "氾濫原・低地"
      }
    },
    {
      "type": "Feature",
      "geometry": {
        "type": "Point",
        "coordinates": [
          140.62,
          36.47
        ]
      },
      "properties": {
        "都道府県": "茨城県",
        "名称": "久慈川下流平野（日立南）",
        "地理的特徴・成り立ち": "氾濫原の沖積平野。段丘崖が背後に接す。",
        "地形タイプ": "段丘"
      }
    },
    {
      "type": "Feature",
      "geometry": {
        "type": "Point",
        "coordinates": [
          140.1,
          36.22
        ]
      },
      "properties": {
        "都道府県": "茨城県",
        "名称": "筑波山",
        "地理的特徴・成り立ち": "斑れい岩・花崗斑岩の残丘的山地。節理に沿う急崖。",
        "地形タイプ": "花崗岩侵食地形"
      }
    },
    {
      "type": "Feature",
      "geometry": {
        "type": "Point",
        "coordinates": [
          140.35,
          36.77
        ]
      },
      "properties": {
        "都道府県": "茨城県",
        "名称": "八溝山地縁辺（大子）",
        "地理的特徴・成り立ち": "古期堆積岩の急峻山地。V字谷が卓越。",
        "地形タイプ": "その他"
      }
    },
    {
      "type": "Feature",
      "geometry": {
        "type": "Point",
        "coordinates": [
          140.45,
          36.75
        ]
      },
      "properties": {
        "都道府県": "茨城県",
        "名称": "竜神峡",
        "地理的特徴・成り立ち": "凝灰岩台地を刻む峡谷。直線谷が連続。",
        "地形タイプ": "台地"
      }
    },
    {
      "type": "Feature",
      "geometry": {
        "type": "Point",
        "coordinates": [
          140.1,
          36.1
        ]
      },
      "properties": {
        "都道府県": "茨城県",
        "名称": "筑波台地（つくば台地）",
        "地理的特徴・成り立ち": "ロームに被覆された台地。開析谷が発達。",
        "地形タイプ": "台地"
      }
    },
    {
      "type": "Feature",
      "geometry": {
        "type": "Point",
        "coordinates": [
          140.34,
          35.97
        ]
      },
      "properties": {
        "都道府県": "茨城県",
        "名称": "稲敷低地（江戸崎）",
        "地理的特徴・成り立ち": "利根川改修で形成された低地。旧河道が密集。",
        "地形タイプ": "氾濫原・低地"
      }
    },
    {
      "type": "Feature",
      "geometry": {
        "type": "Point",
        "coordinates": [
          140.52,
          36.35
        ]
      },
      "properties": {
        "都道府県": "茨城県",
        "名称": "涸沼",
        "地理的特徴・成り立ち": "潟湖性の汽水湖。砂州で湾口が制御。",
        "地形タイプ": "砂州・砂嘴"
      }
    },
    {
      "type": "Feature",
      "geometry": {
        "type": "Point",
        "coordinates": [
          140.82,
          35.74
        ]
      },
      "properties": {
        "都道府県": "茨城県",
        "名称": "波崎砂嘴",
        "地理的特徴・成り立ち": "沿岸漂砂の集積で発達した砂嘴。",
        "地形タイプ": "砂州・砂嘴"
      }
    },
    {
      "type": "Feature",
      "geometry": {
        "type": "Point",
        "coordinates": [
          140.64,
          36.55
        ]
      },
      "properties": {
        "都道府県": "茨城県",
        "名称": "日立海岸段丘",
        "地理的特徴・成り立ち": "隆起性海岸段丘列。旧汀線ノッチが明瞭。",
        "地形タイプ": "海岸段丘"
      }
    },
    {
      "type": "Feature",
      "geometry": {
        "type": "Point",
        "coordinates": [
          140.13,
          35.97
        ]
      },
      "properties": {
        "都道府県": "茨城県",
        "名称": "牛久沼",
        "地理的特徴・成り立ち": "谷底の堰止湖。泥炭質堆積。",
        "地形タイプ": "その他"
      }
    },
    {
      "type": "Feature",
      "geometry": {
        "type": "Point",
        "coordinates": [
          140.09,
          36.27
        ]
      },
      "properties": {
        "都道府県": "茨城県",
        "名称": "桜川扇状地（岩瀬）",
        "地理的特徴・成り立ち": "小扇状地。扇端湧水が点在。",
        "地形タイプ": "扇状地"
      }
    },
    {
      "type": "Feature",
      "geometry": {
        "type": "Point",
        "coordinates": [
          139.99,
          36.02
        ]
      },
      "properties": {
        "都道府県": "茨城県",
        "名称": "小貝川氾濫原（常総）",
        "地理的特徴・成り立ち": "氾濫原の自然堤防・後背湿地。",
        "地形タイプ": "氾濫原・低地"
      }
    },
    {
      "type": "Feature",
      "geometry": {
        "type": "Point",
        "coordinates": [
          140.45,
          36.56
        ]
      },
      "properties": {
        "都道府県": "茨城県",
        "名称": "古徳沼",
        "地理的特徴・成り立ち": "小規模な湖成盆地。葦原の発達。",
        "地形タイプ": "その他"
      }
    },
    {
      "type": "Feature",
      "geometry": {
        "type": "Point",
        "coordinates": [
          140.6,
          36.35
        ]
      },
      "properties": {
        "都道府県": "茨城県",
        "名称": "那珂湊海食崖",
        "地理的特徴・成り立ち": "砂岩泥岩互層の海食崖。差別侵食が顕著。",
        "地形タイプ": "海食崖・波食台"
      }
    },
    {
      "type": "Feature",
      "geometry": {
        "type": "Point",
        "coordinates": [
          139.49,
          36.76
        ]
      },
      "properties": {
        "都道府県": "栃木県",
        "名称": "日光男体山",
        "地理的特徴・成り立ち": "成層火山。溶岩円頂丘と火口原湖（中禅寺湖）。",
        "地形タイプ": "火山地形"
      }
    },
    {
      "type": "Feature",
      "geometry": {
        "type": "Point",
        "coordinates": [
          139.51,
          36.73
        ]
      },
      "properties": {
        "都道府県": "栃木県",
        "名称": "中禅寺湖",
        "地理的特徴・成り立ち": "溶岩堰止湖。湖成段丘が周囲に発達。",
        "地形タイプ": "火山地形"
      }
    },
    {
      "type": "Feature",
      "geometry": {
        "type": "Point",
        "coordinates": [
          139.5,
          36.73
        ]
      },
      "properties": {
        "都道府県": "栃木県",
        "名称": "華厳渓谷",
        "地理的特徴・成り立ち": "溶結凝灰岩の直瀑・峡谷。後退侵食。",
        "地形タイプ": "火山地形"
      }
    },
    {
      "type": "Feature",
      "geometry": {
        "type": "Point",
        "coordinates": [
          139.72,
          36.83
        ]
      },
      "properties": {
        "都道府県": "栃木県",
        "名称": "鬼怒川中流段丘",
        "地理的特徴・成り立ち": "河成段丘群が階段状に配列。",
        "地形タイプ": "段丘"
      }
    },
    {
      "type": "Feature",
      "geometry": {
        "type": "Point",
        "coordinates": [
          139.96,
          37.12
        ]
      },
      "properties": {
        "都道府県": "栃木県",
        "名称": "那須火山群（茶臼岳）",
        "地理的特徴・成り立ち": "安山岩質の火山群。噴気地形。",
        "地形タイプ": "火山地形"
      }
    },
    {
      "type": "Feature",
      "geometry": {
        "type": "Point",
        "coordinates": [
          139.75,
          36.95
        ]
      },
      "properties": {
        "都道府県": "栃木県",
        "名称": "塩原温泉峡谷",
        "地理的特徴・成り立ち": "凝灰岩台地を刻む峡谷。滝と巨礫河床。",
        "地形タイプ": "台地"
      }
    },
    {
      "type": "Feature",
      "geometry": {
        "type": "Point",
        "coordinates": [
          139.44,
          36.58
        ]
      },
      "properties": {
        "都道府県": "栃木県",
        "名称": "足尾山地",
        "地理的特徴・成り立ち": "古期堆積岩の急峻山地。鉱化帯の露頭。",
        "地形タイプ": "その他"
      }
    },
    {
      "type": "Feature",
      "geometry": {
        "type": "Point",
        "coordinates": [
          140.15,
          36.55
        ]
      },
      "properties": {
        "都道府県": "栃木県",
        "名称": "八溝山地南縁（茂木）",
        "地理的特徴・成り立ち": "侵食丘陵と開析谷。",
        "地形タイプ": "その他"
      }
    },
    {
      "type": "Feature",
      "geometry": {
        "type": "Point",
        "coordinates": [
          139.9,
          36.56
        ]
      },
      "properties": {
        "都道府県": "栃木県",
        "名称": "宇都宮台地（河内）",
        "地理的特徴・成り立ち": "関東ローム層の台地。谷底低地が入り組む。",
        "地形タイプ": "氾濫原・低地"
      }
    },
    {
      "type": "Feature",
      "geometry": {
        "type": "Point",
        "coordinates": [
          139.75,
          36.55
        ]
      },
      "properties": {
        "都道府県": "栃木県",
        "名称": "鹿沼扇状地",
        "地理的特徴・成り立ち": "小扇状地。扇端湧水が点在。",
        "地形タイプ": "扇状地"
      }
    },
    {
      "type": "Feature",
      "geometry": {
        "type": "Point",
        "coordinates": [
          139.58,
          36.32
        ]
      },
      "properties": {
        "都道府県": "栃木県",
        "名称": "佐野扇状地",
        "地理的特徴・成り立ち": "足尾山地を源とする扇状地。",
        "地形タイプ": "扇状地"
      }
    },
    {
      "type": "Feature",
      "geometry": {
        "type": "Point",
        "coordinates": [
          139.8,
          36.32
        ]
      },
      "properties": {
        "都道府県": "栃木県",
        "名称": "思川氾濫原（小山）",
        "地理的特徴・成り立ち": "自然堤防・後背湿地がモザイク。",
        "地形タイプ": "氾濫原・低地"
      }
    },
    {
      "type": "Feature",
      "geometry": {
        "type": "Point",
        "coordinates": [
          140.12,
          36.65
        ]
      },
      "properties": {
        "都道府県": "栃木県",
        "名称": "烏山丘陵",
        "地理的特徴・成り立ち": "第三紀層の侵食丘陵。",
        "地形タイプ": "その他"
      }
    },
    {
      "type": "Feature",
      "geometry": {
        "type": "Point",
        "coordinates": [
          139.98,
          36.95
        ]
      },
      "properties": {
        "都道府県": "栃木県",
        "名称": "那須野ヶ原扇状地",
        "地理的特徴・成り立ち": "広大な扇状地。伏流水と疏水網が発達。",
        "地形タイプ": "扇状地"
      }
    },
    {
      "type": "Feature",
      "geometry": {
        "type": "Point",
        "coordinates": [
          139.66,
          36.93
        ]
      },
      "properties": {
        "都道府県": "栃木県",
        "名称": "男鹿川段丘（湯西川）",
        "地理的特徴・成り立ち": "河成段丘群。テラス面が明瞭。",
        "地形タイプ": "段丘"
      }
    },
    {
      "type": "Feature",
      "geometry": {
        "type": "Point",
        "coordinates": [
          139.5,
          36.75
        ]
      },
      "properties": {
        "都道府県": "栃木県",
        "名称": "横川砂州（中禅寺湖畔）",
        "地理的特徴・成り立ち": "湖浜の砂州・浜堤列。",
        "地形タイプ": "砂州・砂嘴"
      }
    },
    {
      "type": "Feature",
      "geometry": {
        "type": "Point",
        "coordinates": [
          139.63,
          36.2
        ]
      },
      "properties": {
        "都道府県": "栃木県",
        "名称": "渡良瀬遊水地（栃木域）",
        "地理的特徴・成り立ち": "低地の遊水地。旧河道とヨシ原。",
        "地形タイプ": "氾濫原・低地"
      }
    },
    {
      "type": "Feature",
      "geometry": {
        "type": "Point",
        "coordinates": [
          139.67,
          36.89
        ]
      },
      "properties": {
        "都道府県": "栃木県",
        "名称": "高原山（釈迦ヶ岳）",
        "地理的特徴・成り立ち": "成層火山。溶岩流と火砕丘が点在。",
        "地形タイプ": "火山地形"
      }
    },
    {
      "type": "Feature",
      "geometry": {
        "type": "Point",
        "coordinates": [
          139.74,
          36.3
        ]
      },
      "properties": {
        "都道府県": "栃木県",
        "名称": "思川扇状地扇端湧水群",
        "地理的特徴・成り立ち": "扇端湧水の分布密。",
        "地形タイプ": "扇状地"
      }
    },
    {
      "type": "Feature",
      "geometry": {
        "type": "Point",
        "coordinates": [
          139.7,
          36.73
        ]
      },
      "properties": {
        "都道府県": "栃木県",
        "名称": "今市扇状地",
        "地理的特徴・成り立ち": "日光山地からの小扇状地群。",
        "地形タイプ": "扇状地"
      }
    },
    {
      "type": "Feature",
      "geometry": {
        "type": "Point",
        "coordinates": [
          139.2,
          36.55
        ]
      },
      "properties": {
        "都道府県": "群馬県",
        "名称": "赤城山",
        "地理的特徴・成り立ち": "成層火山の複成体。カルデラ湖（大沼）。",
        "地形タイプ": "火山地形"
      }
    },
    {
      "type": "Feature",
      "geometry": {
        "type": "Point",
        "coordinates": [
          138.87,
          36.47
        ]
      },
      "properties": {
        "都道府県": "群馬県",
        "名称": "榛名山",
        "地理的特徴・成り立ち": "溶岩ドーム群。カルデラ内に火口原。",
        "地形タイプ": "火山地形"
      }
    },
    {
      "type": "Feature",
      "geometry": {
        "type": "Point",
        "coordinates": [
          138.77,
          36.32
        ]
      },
      "properties": {
        "都道府県": "群馬県",
        "名称": "妙義山",
        "地理的特徴・成り立ち": "礫岩・凝灰角礫岩の奇峰。差別侵食地形。",
        "地形タイプ": "その他"
      }
    },
    {
      "type": "Feature",
      "geometry": {
        "type": "Point",
        "coordinates": [
          138.53,
          36.4
        ]
      },
      "properties": {
        "都道府県": "群馬県",
        "名称": "浅間山（群馬側）",
        "地理的特徴・成り立ち": "活火山。溶岩流・スコリア丘が卓越。",
        "地形タイプ": "火山地形"
      }
    },
    {
      "type": "Feature",
      "geometry": {
        "type": "Point",
        "coordinates": [
          138.55,
          36.62
        ]
      },
      "properties": {
        "都道府県": "群馬県",
        "名称": "草津白根山",
        "地理的特徴・成り立ち": "火山性地形。酸性湖と噴気地。",
        "地形タイプ": "火山地形"
      }
    },
    {
      "type": "Feature",
      "geometry": {
        "type": "Point",
        "coordinates": [
          138.84,
          36.66
        ]
      },
      "properties": {
        "都道府県": "群馬県",
        "名称": "四万川峡谷",
        "地理的特徴・成り立ち": "花崗岩の直線谷。節理に沿う瀞と滝。",
        "地形タイプ": "花崗岩侵食地形"
      }
    },
    {
      "type": "Feature",
      "geometry": {
        "type": "Point",
        "coordinates": [
          138.85,
          36.6
        ]
      },
      "properties": {
        "都道府県": "群馬県",
        "名称": "吾妻川中流段丘（中之条）",
        "地理的特徴・成り立ち": "河成段丘群。テラス面が明瞭。",
        "地形タイプ": "段丘"
      }
    },
    {
      "type": "Feature",
      "geometry": {
        "type": "Point",
        "coordinates": [
          138.98,
          36.8
        ]
      },
      "properties": {
        "都道府県": "群馬県",
        "名称": "利根川上流谷（みなかみ）",
        "地理的特徴・成り立ち": "U字谷〜V字谷の遷移。氷期の痕跡。",
        "地形タイプ": "その他"
      }
    },
    {
      "type": "Feature",
      "geometry": {
        "type": "Point",
        "coordinates": [
          139.05,
          36.65
        ]
      },
      "properties": {
        "都道府県": "群馬県",
        "名称": "沼田盆地",
        "地理的特徴・成り立ち": "堆積性盆地。扇状地と段丘がモザイク。",
        "地形タイプ": "扇状地"
      }
    },
    {
      "type": "Feature",
      "geometry": {
        "type": "Point",
        "coordinates": [
          139.54,
          36.25
        ]
      },
      "properties": {
        "都道府県": "群馬県",
        "名称": "館林・邑楽低地",
        "地理的特徴・成り立ち": "利根川低地。自然堤防・後背湿地。",
        "地形タイプ": "氾濫原・低地"
      }
    },
    {
      "type": "Feature",
      "geometry": {
        "type": "Point",
        "coordinates": [
          139.5,
          36.32
        ]
      },
      "properties": {
        "都道府県": "群馬県",
        "名称": "渡良瀬川下流氾濫原",
        "地理的特徴・成り立ち": "氾濫原の微地形が発達。",
        "地形タイプ": "氾濫原・低地"
      }
    },
    {
      "type": "Feature",
      "geometry": {
        "type": "Point",
        "coordinates": [
          138.92,
          36.58
        ]
      },
      "properties": {
        "都道府県": "群馬県",
        "名称": "上州三峰（子持山）",
        "地理的特徴・成り立ち": "安山岩体の急峻山地。",
        "地形タイプ": "その他"
      }
    },
    {
      "type": "Feature",
      "geometry": {
        "type": "Point",
        "coordinates": [
          139.17,
          36.86
        ]
      },
      "properties": {
        "都道府県": "群馬県",
        "名称": "武尊山",
        "地理的特徴・成り立ち": "古期火山体。周氷河性の岩屑斜面。",
        "地形タイプ": "火山地形"
      }
    },
    {
      "type": "Feature",
      "geometry": {
        "type": "Point",
        "coordinates": [
          138.67,
          36.35
        ]
      },
      "properties": {
        "都道府県": "群馬県",
        "名称": "碓氷峠",
        "地理的特徴・成り立ち": "構造線上の鞍部。侵食谷の分水界。",
        "地形タイプ": "断層地形"
      }
    },
    {
      "type": "Feature",
      "geometry": {
        "type": "Point",
        "coordinates": [
          139.37,
          36.31
        ]
      },
      "properties": {
        "都道府県": "群馬県",
        "名称": "太田・館林台地（関東ローム）",
        "地理的特徴・成り立ち": "ローム被覆の開析台地。",
        "地形タイプ": "台地"
      }
    },
    {
      "type": "Feature",
      "geometry": {
        "type": "Point",
        "coordinates": [
          139.0,
          36.49
        ]
      },
      "properties": {
        "都道府県": "群馬県",
        "名称": "渋川扇状地",
        "地理的特徴・成り立ち": "利根川支流による小扇状地群。",
        "地形タイプ": "扇状地"
      }
    },
    {
      "type": "Feature",
      "geometry": {
        "type": "Point",
        "coordinates": [
          139.02,
          36.12
        ]
      },
      "properties": {
        "都道府県": "群馬県",
        "名称": "神流川谷底平野",
        "地理的特徴・成り立ち": "山間の沖積錐・扇状地。",
        "地形タイプ": "扇状地"
      }
    },
    {
      "type": "Feature",
      "geometry": {
        "type": "Point",
        "coordinates": [
          138.8,
          36.3
        ]
      },
      "properties": {
        "都道府県": "群馬県",
        "名称": "磯部温泉段丘",
        "地理的特徴・成り立ち": "河岸段丘上の温泉地。",
        "地形タイプ": "段丘"
      }
    },
    {
      "type": "Feature",
      "geometry": {
        "type": "Point",
        "coordinates": [
          139.35,
          36.8
        ]
      },
      "properties": {
        "都道府県": "群馬県",
        "名称": "片品川谷（丸沼周辺）",
        "地理的特徴・成り立ち": "火山性堰止湖と段丘。",
        "地形タイプ": "火山地形"
      }
    },
    {
      "type": "Feature",
      "geometry": {
        "type": "Point",
        "coordinates": [
          138.55,
          36.45
        ]
      },
      "properties": {
        "都道府県": "群馬県",
        "名称": "浅間高原",
        "地理的特徴・成り立ち": "溶岩台地とスコリア堆積の高原。",
        "地形タイプ": "火山地形"
      }
    },
    {
      "type": "Feature",
      "geometry": {
        "type": "Point",
        "coordinates": [
          139.45,
          35.79
        ]
      },
      "properties": {
        "都道府県": "埼玉県",
        "名称": "武蔵野台地（所沢・入間）",
        "地理的特徴・成り立ち": "関東ローム層の開析台地。段丘化が進む。",
        "地形タイプ": "段丘"
      }
    },
    {
      "type": "Feature",
      "geometry": {
        "type": "Point",
        "coordinates": [
          139.71,
          35.82
        ]
      },
      "properties": {
        "都道府県": "埼玉県",
        "名称": "荒川下流低地（川口〜戸田）",
        "地理的特徴・成り立ち": "氾濫原と自然堤防。旧河道が密。",
        "地形タイプ": "氾濫原・低地"
      }
    },
    {
      "type": "Feature",
      "geometry": {
        "type": "Point",
        "coordinates": [
          139.84,
          35.86
        ]
      },
      "properties": {
        "都道府県": "埼玉県",
        "名称": "中川低地（越谷〜三郷）",
        "地理的特徴・成り立ち": "低湿地と旧流路のモザイク。",
        "地形タイプ": "氾濫原・低地"
      }
    },
    {
      "type": "Feature",
      "geometry": {
        "type": "Point",
        "coordinates": [
          139.66,
          35.89
        ]
      },
      "properties": {
        "都道府県": "埼玉県",
        "名称": "見沼田圃低地",
        "地理的特徴・成り立ち": "後背湿地の低地。用水路網が発達。",
        "地形タイプ": "氾濫原・低地"
      }
    },
    {
      "type": "Feature",
      "geometry": {
        "type": "Point",
        "coordinates": [
          139.29,
          36.02
        ]
      },
      "properties": {
        "都道府県": "埼玉県",
        "名称": "比企丘陵",
        "地理的特徴・成り立ち": "第三紀層の侵食丘陵。",
        "地形タイプ": "その他"
      }
    },
    {
      "type": "Feature",
      "geometry": {
        "type": "Point",
        "coordinates": [
          139.39,
          35.84
        ]
      },
      "properties": {
        "都道府県": "埼玉県",
        "名称": "入間川扇状地",
        "地理的特徴・成り立ち": "中規模扇状地。扇端湧水が点在。",
        "地形タイプ": "扇状地"
      }
    },
    {
      "type": "Feature",
      "geometry": {
        "type": "Point",
        "coordinates": [
          139.42,
          35.77
        ]
      },
      "properties": {
        "都道府県": "埼玉県",
        "名称": "狭山丘陵",
        "地理的特徴・成り立ち": "ローム被覆の丘陵。谷頭侵食が顕著。",
        "地形タイプ": "その他"
      }
    },
    {
      "type": "Feature",
      "geometry": {
        "type": "Point",
        "coordinates": [
          139.49,
          35.91
        ]
      },
      "properties": {
        "都道府県": "埼玉県",
        "名称": "川越台地",
        "地理的特徴・成り立ち": "段丘面上の台地。開析谷が入り組む。",
        "地形タイプ": "段丘"
      }
    },
    {
      "type": "Feature",
      "geometry": {
        "type": "Point",
        "coordinates": [
          139.08,
          35.99
        ]
      },
      "properties": {
        "都道府県": "埼玉県",
        "名称": "秩父盆地",
        "地理的特徴・成り立ち": "構造性堆積盆地。段丘面・扇状地がモザイク。",
        "地形タイプ": "扇状地"
      }
    },
    {
      "type": "Feature",
      "geometry": {
        "type": "Point",
        "coordinates": [
          139.11,
          36.12
        ]
      },
      "properties": {
        "都道府県": "埼玉県",
        "名称": "長瀞渓谷",
        "地理的特徴・成り立ち": "結晶片岩の峡谷。河床に甌穴・小規模滝。",
        "地形タイプ": "その他"
      }
    },
    {
      "type": "Feature",
      "geometry": {
        "type": "Point",
        "coordinates": [
          139.38,
          36.15
        ]
      },
      "properties": {
        "都道府県": "埼玉県",
        "名称": "熊谷荒川段丘",
        "地理的特徴・成り立ち": "河成段丘群。テラス配列が明瞭。",
        "地形タイプ": "段丘"
      }
    },
    {
      "type": "Feature",
      "geometry": {
        "type": "Point",
        "coordinates": [
          139.19,
          36.11
        ]
      },
      "properties": {
        "都道府県": "埼玉県",
        "名称": "寄居玉淀",
        "地理的特徴・成り立ち": "峡谷の瀞。岩畳が発達。",
        "地形タイプ": "その他"
      }
    },
    {
      "type": "Feature",
      "geometry": {
        "type": "Point",
        "coordinates": [
          139.45,
          36.06
        ]
      },
      "properties": {
        "都道府県": "埼玉県",
        "名称": "鴻巣吹上低地",
        "地理的特徴・成り立ち": "低湿地と旧河道が交錯。",
        "地形タイプ": "氾濫原・低地"
      }
    },
    {
      "type": "Feature",
      "geometry": {
        "type": "Point",
        "coordinates": [
          139.41,
          36.05
        ]
      },
      "properties": {
        "都道府県": "埼玉県",
        "名称": "吉見丘陵河岸段丘",
        "地理的特徴・成り立ち": "段丘崖が明瞭。ローム層厚い。",
        "地形タイプ": "段丘"
      }
    },
    {
      "type": "Feature",
      "geometry": {
        "type": "Point",
        "coordinates": [
          139.4,
          36.04
        ]
      },
      "properties": {
        "都道府県": "埼玉県",
        "名称": "東松山台地",
        "地理的特徴・成り立ち": "ローム台地。谷底低地が分布。",
        "地形タイプ": "氾濫原・低地"
      }
    },
    {
      "type": "Feature",
      "geometry": {
        "type": "Point",
        "coordinates": [
          139.66,
          36.13
        ]
      },
      "properties": {
        "都道府県": "埼玉県",
        "名称": "加須低地（旧渡良瀬遊水地縁）",
        "地理的特徴・成り立ち": "氾濫原の低地。後背湿地が卓越。",
        "地形タイプ": "氾濫原・低地"
      }
    },
    {
      "type": "Feature",
      "geometry": {
        "type": "Point",
        "coordinates": [
          139.62,
          35.91
        ]
      },
      "properties": {
        "都道府県": "埼玉県",
        "名称": "荒川扇状地扇端湧水群（与野周辺）",
        "地理的特徴・成り立ち": "扇端湧水の集中域。",
        "地形タイプ": "扇状地"
      }
    },
    {
      "type": "Feature",
      "geometry": {
        "type": "Point",
        "coordinates": [
          139.26,
          36.06
        ]
      },
      "properties": {
        "都道府県": "埼玉県",
        "名称": "小川町丘陵",
        "地理的特徴・成り立ち": "侵食丘陵と谷底平野。",
        "地形タイプ": "氾濫原・低地"
      }
    },
    {
      "type": "Feature",
      "geometry": {
        "type": "Point",
        "coordinates": [
          139.32,
          35.85
        ]
      },
      "properties": {
        "都道府県": "埼玉県",
        "名称": "飯能河岸段丘",
        "地理的特徴・成り立ち": "河成段丘の階段状配列。",
        "地形タイプ": "段丘"
      }
    },
    {
      "type": "Feature",
      "geometry": {
        "type": "Point",
        "coordinates": [
          138.99,
          35.95
        ]
      },
      "properties": {
        "都道府県": "埼玉県",
        "名称": "三峰山地縁辺",
        "地理的特徴・成り立ち": "結晶片岩の急峻山地。",
        "地形タイプ": "その他"
      }
    },
    {
      "type": "Feature",
      "geometry": {
        "type": "Point",
        "coordinates": [
          140.45,
          35.6
        ]
      },
      "properties": {
        "都道府県": "千葉県",
        "名称": "九十九里浜（砂丘・浜堤列）",
        "地理的特徴・成り立ち": "外洋性の長大砂浜・砂丘列。沿岸漂砂が卓越。",
        "地形タイプ": "砂丘"
      }
    },
    {
      "type": "Feature",
      "geometry": {
        "type": "Point",
        "coordinates": [
          140.87,
          35.7
        ]
      },
      "properties": {
        "都道府県": "千葉県",
        "名称": "犬吠埼（屏風ヶ浦）",
        "地理的特徴・成り立ち": "海食崖・波食台が発達する外洋性海岸。",
        "地形タイプ": "海食崖・波食台"
      }
    },
    {
      "type": "Feature",
      "geometry": {
        "type": "Point",
        "coordinates": [
          140.83,
          35.74
        ]
      },
      "properties": {
        "都道府県": "千葉県",
        "名称": "利根川河口デルタ（銚子）",
        "地理的特徴・成り立ち": "河口三角州。砂州が発達。",
        "地形タイプ": "三角州"
      }
    },
    {
      "type": "Feature",
      "geometry": {
        "type": "Point",
        "coordinates": [
          139.92,
          35.38
        ]
      },
      "properties": {
        "都道府県": "千葉県",
        "名称": "木更津干潟",
        "地理的特徴・成り立ち": "東京湾の干潟。潮汐チャネルが発達。",
        "地形タイプ": "干潟・干拓低地"
      }
    },
    {
      "type": "Feature",
      "geometry": {
        "type": "Point",
        "coordinates": [
          139.96,
          35.66
        ]
      },
      "properties": {
        "都道府県": "千葉県",
        "名称": "三番瀬",
        "地理的特徴・成り立ち": "内湾干潟。埋立地と共存。",
        "地形タイプ": "干潟・干拓低地"
      }
    },
    {
      "type": "Feature",
      "geometry": {
        "type": "Point",
        "coordinates": [
          140.08,
          35.63
        ]
      },
      "properties": {
        "都道府県": "千葉県",
        "名称": "東京湾岸埋立地（千葉港）",
        "地理的特徴・成り立ち": "内湾の人工埋積地形。圧密沈下管理。",
        "地形タイプ": "干潟・干拓低地"
      }
    },
    {
      "type": "Feature",
      "geometry": {
        "type": "Point",
        "coordinates": [
          140.15,
          35.3
        ]
      },
      "properties": {
        "都道府県": "千葉県",
        "名称": "上総丘陵",
        "地理的特徴・成り立ち": "第三紀層の侵食丘陵。谷頭浸食。",
        "地形タイプ": "その他"
      }
    },
    {
      "type": "Feature",
      "geometry": {
        "type": "Point",
        "coordinates": [
          140.1,
          35.11
        ]
      },
      "properties": {
        "都道府県": "千葉県",
        "名称": "安房鴨川海岸",
        "地理的特徴・成り立ち": "外洋性の砂浜・岩礁のモザイク海岸。",
        "地形タイプ": "その他"
      }
    },
    {
      "type": "Feature",
      "geometry": {
        "type": "Point",
        "coordinates": [
          140.37,
          35.35
        ]
      },
      "properties": {
        "都道府県": "千葉県",
        "名称": "太東岬砂州",
        "地理的特徴・成り立ち": "沿岸漂砂で形成された砂州。",
        "地形タイプ": "砂州・砂嘴"
      }
    },
    {
      "type": "Feature",
      "geometry": {
        "type": "Point",
        "coordinates": [
          140.17,
          35.24
        ]
      },
      "properties": {
        "都道府県": "千葉県",
        "名称": "養老渓谷",
        "地理的特徴・成り立ち": "凝灰岩台地の侵食峡谷。滝と河床段差。",
        "地形タイプ": "台地"
      }
    },
    {
      "type": "Feature",
      "geometry": {
        "type": "Point",
        "coordinates": [
          139.81,
          35.28
        ]
      },
      "properties": {
        "都道府県": "千葉県",
        "名称": "富津岬砂州",
        "地理的特徴・成り立ち": "東京湾内の砂州。潮流で形状変化。",
        "地形タイプ": "砂州・砂嘴"
      }
    },
    {
      "type": "Feature",
      "geometry": {
        "type": "Point",
        "coordinates": [
          139.84,
          34.99
        ]
      },
      "properties": {
        "都道府県": "千葉県",
        "名称": "館山湾（鏡ケ浦）",
        "地理的特徴・成り立ち": "沈水谷の内湾。砂州で湾口が制御。",
        "地形タイプ": "砂州・砂嘴"
      }
    },
    {
      "type": "Feature",
      "geometry": {
        "type": "Point",
        "coordinates": [
          140.35,
          35.42
        ]
      },
      "properties": {
        "都道府県": "千葉県",
        "名称": "長生平野",
        "地理的特徴・成り立ち": "海岸平野。浜堤列と後背湿地。",
        "地形タイプ": "氾濫原・低地"
      }
    },
    {
      "type": "Feature",
      "geometry": {
        "type": "Point",
        "coordinates": [
          140.5,
          35.89
        ]
      },
      "properties": {
        "都道府県": "千葉県",
        "名称": "佐原低地（香取市）",
        "地理的特徴・成り立ち": "利根川低地。旧河道が密。",
        "地形タイプ": "氾濫原・低地"
      }
    },
    {
      "type": "Feature",
      "geometry": {
        "type": "Point",
        "coordinates": [
          140.47,
          35.72
        ]
      },
      "properties": {
        "都道府県": "千葉県",
        "名称": "多古扇状地",
        "地理的特徴・成り立ち": "小扇状地。扇端湧水群。",
        "地形タイプ": "扇状地"
      }
    },
    {
      "type": "Feature",
      "geometry": {
        "type": "Point",
        "coordinates": [
          140.36,
          35.37
        ]
      },
      "properties": {
        "都道府県": "千葉県",
        "名称": "一宮川下流氾濫原",
        "地理的特徴・成り立ち": "氾濫原の自然堤防・後背湿地。",
        "地形タイプ": "氾濫原・低地"
      }
    },
    {
      "type": "Feature",
      "geometry": {
        "type": "Point",
        "coordinates": [
          139.97,
          35.13
        ]
      },
      "properties": {
        "都道府県": "千葉県",
        "名称": "長狭盆地",
        "地理的特徴・成り立ち": "小盆地。段丘面が分布。",
        "地形タイプ": "段丘"
      }
    },
    {
      "type": "Feature",
      "geometry": {
        "type": "Point",
        "coordinates": [
          140.32,
          35.15
        ]
      },
      "properties": {
        "都道府県": "千葉県",
        "名称": "勝浦海岸段丘",
        "地理的特徴・成り立ち": "隆起性海岸段丘列。旧汀線が明瞭。",
        "地形タイプ": "海岸段丘"
      }
    },
    {
      "type": "Feature",
      "geometry": {
        "type": "Point",
        "coordinates": [
          140.1,
          35.52
        ]
      },
      "properties": {
        "都道府県": "千葉県",
        "名称": "市原台地",
        "地理的特徴・成り立ち": "ローム被覆の台地。開析谷が発達。",
        "地形タイプ": "台地"
      }
    },
    {
      "type": "Feature",
      "geometry": {
        "type": "Point",
        "coordinates": [
          139.95,
          35.3
        ]
      },
      "properties": {
        "都道府県": "千葉県",
        "名称": "君津山地縁辺",
        "地理的特徴・成り立ち": "侵食山地と小扇状地。",
        "地形タイプ": "扇状地"
      }
    },
    {
      "type": "Feature",
      "geometry": {
        "type": "Point",
        "coordinates": [
          139.55,
          35.7
        ]
      },
      "properties": {
        "都道府県": "東京都",
        "名称": "武蔵野台地",
        "地理的特徴・成り立ち": "関東ローム層の広大な台地。段丘化が進行。",
        "地形タイプ": "段丘"
      }
    },
    {
      "type": "Feature",
      "geometry": {
        "type": "Point",
        "coordinates": [
          139.7,
          35.6
        ]
      },
      "properties": {
        "都道府県": "東京都",
        "名称": "多摩川下流段丘",
        "地理的特徴・成り立ち": "河成段丘群。テラス面が連続。",
        "地形タイプ": "段丘"
      }
    },
    {
      "type": "Feature",
      "geometry": {
        "type": "Point",
        "coordinates": [
          139.83,
          35.68
        ]
      },
      "properties": {
        "都道府県": "東京都",
        "名称": "荒川下流低地（江東デルタ）",
        "地理的特徴・成り立ち": "三角州性低地。埋立地と旧河道がモザイク。",
        "地形タイプ": "三角州"
      }
    },
    {
      "type": "Feature",
      "geometry": {
        "type": "Point",
        "coordinates": [
          139.78,
          35.62
        ]
      },
      "properties": {
        "都道府県": "東京都",
        "名称": "東京湾岸埋立地（臨海副都心）",
        "地理的特徴・成り立ち": "内湾の人工埋積地形。",
        "地形タイプ": "干潟・干拓低地"
      }
    },
    {
      "type": "Feature",
      "geometry": {
        "type": "Point",
        "coordinates": [
          139.86,
          35.64
        ]
      },
      "properties": {
        "都道府県": "東京都",
        "名称": "葛西臨海・旧干潟域",
        "地理的特徴・成り立ち": "内湾干潟の残存域。潮汐チャネル痕跡。",
        "地形タイプ": "干潟・干拓低地"
      }
    },
    {
      "type": "Feature",
      "geometry": {
        "type": "Point",
        "coordinates": [
          139.24,
          35.63
        ]
      },
      "properties": {
        "都道府県": "東京都",
        "名称": "高尾山",
        "地理的特徴・成り立ち": "古期堆積岩の侵食山地。周氷河性岩屑斜面。",
        "地形タイプ": "その他"
      }
    },
    {
      "type": "Feature",
      "geometry": {
        "type": "Point",
        "coordinates": [
          139.19,
          35.79
        ]
      },
      "properties": {
        "都道府県": "東京都",
        "名称": "御岳渓谷（多摩川上流）",
        "地理的特徴・成り立ち": "花崗岩・変成岩の直線谷。甌穴が発達。",
        "地形タイプ": "花崗岩侵食地形"
      }
    },
    {
      "type": "Feature",
      "geometry": {
        "type": "Point",
        "coordinates": [
          139.05,
          35.78
        ]
      },
      "properties": {
        "都道府県": "東京都",
        "名称": "奥多摩湖（小河内）",
        "地理的特徴・成り立ち": "谷の人造湖。デルタ堆積・堆砂が顕著。",
        "地形タイプ": "三角州"
      }
    },
    {
      "type": "Feature",
      "geometry": {
        "type": "Point",
        "coordinates": [
          139.09,
          35.84
        ]
      },
      "properties": {
        "都道府県": "東京都",
        "名称": "日原鍾乳洞（奥多摩）",
        "地理的特徴・成り立ち": "石灰岩のカルスト洞窟。",
        "地形タイプ": "カルスト"
      }
    },
    {
      "type": "Feature",
      "geometry": {
        "type": "Point",
        "coordinates": [
          139.39,
          34.73
        ]
      },
      "properties": {
        "都道府県": "東京都",
        "名称": "伊豆大島（三原山）",
        "地理的特徴・成り立ち": "玄武岩質の活火山。スコリア丘と溶岩流。",
        "地形タイプ": "火山地形"
      }
    },
    {
      "type": "Feature",
      "geometry": {
        "type": "Point",
        "coordinates": [
          139.26,
          34.37
        ]
      },
      "properties": {
        "都道府県": "東京都",
        "名称": "新島白ママ崖",
        "地理的特徴・成り立ち": "流紋岩質凝灰岩の海食崖。差別侵食。",
        "地形タイプ": "海食崖・波食台"
      }
    },
    {
      "type": "Feature",
      "geometry": {
        "type": "Point",
        "coordinates": [
          139.22,
          34.33
        ]
      },
      "properties": {
        "都道府県": "東京都",
        "名称": "式根島トンボロ",
        "地理的特徴・成り立ち": "砂州で連結された陸繋島群。",
        "地形タイプ": "砂州・砂嘴"
      }
    },
    {
      "type": "Feature",
      "geometry": {
        "type": "Point",
        "coordinates": [
          139.14,
          34.2
        ]
      },
      "properties": {
        "都道府県": "東京都",
        "名称": "神津島火山体",
        "地理的特徴・成り立ち": "安山岩質火山。溶岩円頂丘。",
        "地形タイプ": "火山地形"
      }
    },
    {
      "type": "Feature",
      "geometry": {
        "type": "Point",
        "coordinates": [
          139.53,
          34.08
        ]
      },
      "properties": {
        "都道府県": "東京都",
        "名称": "三宅島雄山",
        "地理的特徴・成り立ち": "安山岩質活火山。カルデラと火口原。",
        "地形タイプ": "火山地形"
      }
    },
    {
      "type": "Feature",
      "geometry": {
        "type": "Point",
        "coordinates": [
          139.78,
          33.11
        ]
      },
      "properties": {
        "都道府県": "東京都",
        "名称": "八丈島（西山・東山）",
        "地理的特徴・成り立ち": "複合火山島。溶岩台地と海食崖。",
        "地形タイプ": "火山地形"
      }
    },
    {
      "type": "Feature",
      "geometry": {
        "type": "Point",
        "coordinates": [
          139.76,
          32.47
        ]
      },
      "properties": {
        "都道府県": "東京都",
        "名称": "青ヶ島カルデラ",
        "地理的特徴・成り立ち": "二重カルデラの火山島。",
        "地形タイプ": "火山地形"
      }
    },
    {
      "type": "Feature",
      "geometry": {
        "type": "Point",
        "coordinates": [
          142.2,
          27.07
        ]
      },
      "properties": {
        "都道府県": "東京都",
        "名称": "父島（小笠原）隆起サンゴ礁段丘",
        "地理的特徴・成り立ち": "隆起サンゴ礁段丘。海食ノッチが明瞭。",
        "地形タイプ": "段丘"
      }
    },
    {
      "type": "Feature",
      "geometry": {
        "type": "Point",
        "coordinates": [
          142.14,
          26.64
        ]
      },
      "properties": {
        "都道府県": "東京都",
        "名称": "母島小港海岸",
        "地理的特徴・成り立ち": "リーフに囲まれた内湾。白砂の堆積。",
        "地形タイプ": "リアス・沈水海岸"
      }
    },
    {
      "type": "Feature",
      "geometry": {
        "type": "Point",
        "coordinates": [
          139.77,
          35.72
        ]
      },
      "properties": {
        "都道府県": "東京都",
        "名称": "恩賜上野台地（下末吉面）",
        "地理的特徴・成り立ち": "海成段丘面の離水台地（下末吉面相当）。",
        "地形タイプ": "段丘"
      }
    },
    {
      "type": "Feature",
      "geometry": {
        "type": "Point",
        "coordinates": [
          139.6,
          35.74
        ]
      },
      "properties": {
        "都道府県": "東京都",
        "名称": "石神井台地・谷底低地",
        "地理的特徴・成り立ち": "台地縁の谷底低地。湧水と小河川。",
        "地形タイプ": "氾濫原・低地"
      }
    },
    {
      "type": "Feature",
      "geometry": {
        "type": "Point",
        "coordinates": [
          139.02,
          35.23
        ]
      },
      "properties": {
        "都道府県": "神奈川県",
        "名称": "箱根カルデラ",
        "地理的特徴・成り立ち": "巨大カルデラ。外輪山と火口原。",
        "地形タイプ": "火山地形"
      }
    },
    {
      "type": "Feature",
      "geometry": {
        "type": "Point",
        "coordinates": [
          139.02,
          35.24
        ]
      },
      "properties": {
        "都道府県": "神奈川県",
        "名称": "大涌谷噴気地",
        "地理的特徴・成り立ち": "噴気活動が顕著な火山地形。",
        "地形タイプ": "火山地形"
      }
    },
    {
      "type": "Feature",
      "geometry": {
        "type": "Point",
        "coordinates": [
          139.39,
          35.55
        ]
      },
      "properties": {
        "都道府県": "神奈川県",
        "名称": "相模川扇状地（相模原）",
        "地理的特徴・成り立ち": "大型扇状地。礫質堆積と扇端湧水。",
        "地形タイプ": "扇状地"
      }
    },
    {
      "type": "Feature",
      "geometry": {
        "type": "Point",
        "coordinates": [
          139.7,
          35.53
        ]
      },
      "properties": {
        "都道府県": "神奈川県",
        "名称": "多摩川下流段丘（川崎）",
        "地理的特徴・成り立ち": "河成段丘群の末端。",
        "地形タイプ": "段丘"
      }
    },
    {
      "type": "Feature",
      "geometry": {
        "type": "Point",
        "coordinates": [
          139.64,
          35.5
        ]
      },
      "properties": {
        "都道府県": "神奈川県",
        "名称": "鶴見川低地",
        "地理的特徴・成り立ち": "低湿地・旧河道が密集。",
        "地形タイプ": "氾濫原・低地"
      }
    },
    {
      "type": "Feature",
      "geometry": {
        "type": "Point",
        "coordinates": [
          139.63,
          35.33
        ]
      },
      "properties": {
        "都道府県": "神奈川県",
        "名称": "金沢八景内湾",
        "地理的特徴・成り立ち": "沈水谷の内湾。砂州で湾口制御。",
        "地形タイプ": "砂州・砂嘴"
      }
    },
    {
      "type": "Feature",
      "geometry": {
        "type": "Point",
        "coordinates": [
          139.65,
          35.2
        ]
      },
      "properties": {
        "都道府県": "神奈川県",
        "名称": "三浦半島海岸段丘",
        "地理的特徴・成り立ち": "隆起性海岸段丘列。旧汀線が明瞭。",
        "地形タイプ": "海岸段丘"
      }
    },
    {
      "type": "Feature",
      "geometry": {
        "type": "Point",
        "coordinates": [
          139.48,
          35.3
        ]
      },
      "properties": {
        "都道府県": "神奈川県",
        "名称": "江の島トンボロ",
        "地理的特徴・成り立ち": "陸繋砂州で本土と連結。",
        "地形タイプ": "砂州・砂嘴"
      }
    },
    {
      "type": "Feature",
      "geometry": {
        "type": "Point",
        "coordinates": [
          139.36,
          35.31
        ]
      },
      "properties": {
        "都道府県": "神奈川県",
        "名称": "湘南海岸（相模湾）",
        "地理的特徴・成り立ち": "砂浜海岸。長岸流による沿岸漂砂。",
        "地形タイプ": "リアス・沈水海岸"
      }
    },
    {
      "type": "Feature",
      "geometry": {
        "type": "Point",
        "coordinates": [
          139.27,
          35.33
        ]
      },
      "properties": {
        "都道府県": "神奈川県",
        "名称": "大磯丘陵",
        "地理的特徴・成り立ち": "第三紀層の侵食丘陵。",
        "地形タイプ": "その他"
      }
    },
    {
      "type": "Feature",
      "geometry": {
        "type": "Point",
        "coordinates": [
          139.16,
          35.26
        ]
      },
      "properties": {
        "都道府県": "神奈川県",
        "名称": "小田原扇状地",
        "地理的特徴・成り立ち": "酒匂川の扇状地。扇端湧水が点在。",
        "地形タイプ": "扇状地"
      }
    },
    {
      "type": "Feature",
      "geometry": {
        "type": "Point",
        "coordinates": [
          139.17,
          35.45
        ]
      },
      "properties": {
        "都道府県": "神奈川県",
        "名称": "丹沢主稜（塔ノ岳）",
        "地理的特徴・成り立ち": "隆起山地。線状谷と急峻斜面。",
        "地形タイプ": "その他"
      }
    },
    {
      "type": "Feature",
      "geometry": {
        "type": "Point",
        "coordinates": [
          139.14,
          35.15
        ]
      },
      "properties": {
        "都道府県": "神奈川県",
        "名称": "相模湾海食崖（真鶴）",
        "地理的特徴・成り立ち": "火成岩の海食崖・波食台。",
        "地形タイプ": "リアス・沈水海岸"
      }
    },
    {
      "type": "Feature",
      "geometry": {
        "type": "Point",
        "coordinates": [
          139.62,
          35.47
        ]
      },
      "properties": {
        "都道府県": "神奈川県",
        "名称": "横浜台地（下末吉面）",
        "地理的特徴・成り立ち": "海成段丘面の離水台地（下末吉面）。",
        "地形タイプ": "段丘"
      }
    },
    {
      "type": "Feature",
      "geometry": {
        "type": "Point",
        "coordinates": [
          139.73,
          35.27
        ]
      },
      "properties": {
        "都道府県": "神奈川県",
        "名称": "横須賀・観音崎",
        "地理的特徴・成り立ち": "東京湾口の岬。潮流強く海底洗掘。",
        "地形タイプ": "リアス・沈水海岸"
      }
    },
    {
      "type": "Feature",
      "geometry": {
        "type": "Point",
        "coordinates": [
          139.57,
          35.29
        ]
      },
      "properties": {
        "都道府県": "神奈川県",
        "名称": "逗子・披露山丘陵",
        "地理的特徴・成り立ち": "侵食丘陵と海成段丘の複合。",
        "地形タイプ": "段丘"
      }
    },
    {
      "type": "Feature",
      "geometry": {
        "type": "Point",
        "coordinates": [
          139.58,
          35.27
        ]
      },
      "properties": {
        "都道府県": "神奈川県",
        "名称": "葉山一色海岸",
        "地理的特徴・成り立ち": "岩石海岸と小規模砂浜。",
        "地形タイプ": "その他"
      }
    },
    {
      "type": "Feature",
      "geometry": {
        "type": "Point",
        "coordinates": [
          139.36,
          35.44
        ]
      },
      "properties": {
        "都道府県": "神奈川県",
        "名称": "厚木低地（相模川下流）",
        "地理的特徴・成り立ち": "氾濫原の低地。自然堤防が発達。",
        "地形タイプ": "氾濫原・低地"
      }
    },
    {
      "type": "Feature",
      "geometry": {
        "type": "Point",
        "coordinates": [
          139.26,
          35.3
        ]
      },
      "properties": {
        "都道府県": "神奈川県",
        "名称": "二宮・吾妻山丘陵",
        "地理的特徴・成り立ち": "第三紀層の侵食丘陵。",
        "地形タイプ": "その他"
      }
    },
    {
      "type": "Feature",
      "geometry": {
        "type": "Point",
        "coordinates": [
          139.62,
          35.14
        ]
      },
      "properties": {
        "都道府県": "神奈川県",
        "名称": "城ヶ島海食崖",
        "地理的特徴・成り立ち": "凝灰岩の海食崖・海食洞。",
        "地形タイプ": "海食崖・波食台"
      }
    },
    {
      "type": "Feature",
      "geometry": {
        "type": "Point",
        "coordinates": [
          139.05,
          37.9
        ]
      },
      "properties": {
        "都道府県": "新潟県",
        "名称": "越後平野",
        "地理的特徴・成り立ち": "信濃川・阿賀野川の巨大三角州。浜堤列・潟湖跡が発達。",
        "地形タイプ": "三角州"
      }
    },
    {
      "type": "Feature",
      "geometry": {
        "type": "Point",
        "coordinates": [
          138.33,
          38.13
        ]
      },
      "properties": {
        "都道府県": "新潟県",
        "名称": "佐渡島外海府海岸",
        "地理的特徴・成り立ち": "玄武岩溶岩の海食崖・波食台。",
        "地形タイプ": "火山地形"
      }
    },
    {
      "type": "Feature",
      "geometry": {
        "type": "Point",
        "coordinates": [
          138.37,
          38.01
        ]
      },
      "properties": {
        "都道府県": "新潟県",
        "名称": "佐渡国中平野",
        "地理的特徴・成り立ち": "内海跡の堆積平野。扇状地と潟湖跡。",
        "地形タイプ": "扇状地"
      }
    },
    {
      "type": "Feature",
      "geometry": {
        "type": "Point",
        "coordinates": [
          139.05,
          37.93
        ]
      },
      "properties": {
        "都道府県": "新潟県",
        "名称": "新潟砂丘",
        "地理的特徴・成り立ち": "長大な海岸砂丘列。季節風で発達。",
        "地形タイプ": "砂丘"
      }
    },
    {
      "type": "Feature",
      "geometry": {
        "type": "Point",
        "coordinates": [
          139.48,
          38.23
        ]
      },
      "properties": {
        "都道府県": "新潟県",
        "名称": "村上海岸段丘",
        "地理的特徴・成り立ち": "隆起性海岸段丘列。",
        "地形タイプ": "海岸段丘"
      }
    },
    {
      "type": "Feature",
      "geometry": {
        "type": "Point",
        "coordinates": [
          139.27,
          38.47
        ]
      },
      "properties": {
        "都道府県": "新潟県",
        "名称": "粟島海食崖",
        "地理的特徴・成り立ち": "小島の海食崖・海食洞。",
        "地形タイプ": "海食崖・波食台"
      }
    },
    {
      "type": "Feature",
      "geometry": {
        "type": "Point",
        "coordinates": [
          138.86,
          37.73
        ]
      },
      "properties": {
        "都道府県": "新潟県",
        "名称": "弥彦山・角田山",
        "地理的特徴・成り立ち": "断層背斜の山地。海成段丘の離水面が接する。",
        "地形タイプ": "段丘"
      }
    },
    {
      "type": "Feature",
      "geometry": {
        "type": "Point",
        "coordinates": [
          139.35,
          38.06
        ]
      },
      "properties": {
        "都道府県": "新潟県",
        "名称": "胎内扇状地",
        "地理的特徴・成り立ち": "粗粒扇状地。扇端湧水が点在。",
        "地形タイプ": "扇状地"
      }
    },
    {
      "type": "Feature",
      "geometry": {
        "type": "Point",
        "coordinates": [
          138.86,
          37.45
        ]
      },
      "properties": {
        "都道府県": "新潟県",
        "名称": "長岡盆地",
        "地理的特徴・成り立ち": "堆積性盆地。段丘面と氾濫原。",
        "地形タイプ": "段丘"
      }
    },
    {
      "type": "Feature",
      "geometry": {
        "type": "Point",
        "coordinates": [
          138.93,
          37.23
        ]
      },
      "properties": {
        "都道府県": "新潟県",
        "名称": "魚沼盆地",
        "地理的特徴・成り立ち": "堆積盆地。河成段丘が発達。",
        "地形タイプ": "段丘"
      }
    },
    {
      "type": "Feature",
      "geometry": {
        "type": "Point",
        "coordinates": [
          138.05,
          36.9
        ]
      },
      "properties": {
        "都道府県": "新潟県",
        "名称": "妙高火山群（火打山）",
        "地理的特徴・成り立ち": "成層火山群。溶岩台地と噴気地形。",
        "地形タイプ": "火山地形"
      }
    },
    {
      "type": "Feature",
      "geometry": {
        "type": "Point",
        "coordinates": [
          137.86,
          37.03
        ]
      },
      "properties": {
        "都道府県": "新潟県",
        "名称": "糸魚川静岡構造線（糸魚川）",
        "地理的特徴・成り立ち": "大断層帯の露頭域。直線谷と断層崖。",
        "地形タイプ": "断層地形"
      }
    },
    {
      "type": "Feature",
      "geometry": {
        "type": "Point",
        "coordinates": [
          137.71,
          36.93
        ]
      },
      "properties": {
        "都道府県": "新潟県",
        "名称": "親不知海食崖",
        "地理的特徴・成り立ち": "基盤岩の急崖が海に迫る。海食棚が狭い。",
        "地形タイプ": "海食崖・波食台"
      }
    },
    {
      "type": "Feature",
      "geometry": {
        "type": "Point",
        "coordinates": [
          138.56,
          37.37
        ]
      },
      "properties": {
        "都道府県": "新潟県",
        "名称": "柏崎平野",
        "地理的特徴・成り立ち": "三角州性平野。浜堤列が発達。",
        "地形タイプ": "三角州"
      }
    },
    {
      "type": "Feature",
      "geometry": {
        "type": "Point",
        "coordinates": [
          139.27,
          37.93
        ]
      },
      "properties": {
        "都道府県": "新潟県",
        "名称": "阿賀野川下流平野",
        "地理的特徴・成り立ち": "三角州性低地。後背湿地が広がる。",
        "地形タイプ": "三角州"
      }
    },
    {
      "type": "Feature",
      "geometry": {
        "type": "Point",
        "coordinates": [
          139.31,
          37.16
        ]
      },
      "properties": {
        "都道府県": "新潟県",
        "名称": "奥只見ダム湖",
        "地理的特徴・成り立ち": "谷の人造湖。堆砂とデルタ成長。",
        "地形タイプ": "三角州"
      }
    },
    {
      "type": "Feature",
      "geometry": {
        "type": "Point",
        "coordinates": [
          138.63,
          36.87
        ]
      },
      "properties": {
        "都道府県": "新潟県",
        "名称": "苗場山湿原（新潟側）",
        "地理的特徴・成り立ち": "高層湿原と溶岩台地。",
        "地形タイプ": "火山地形"
      }
    },
    {
      "type": "Feature",
      "geometry": {
        "type": "Point",
        "coordinates": [
          139.4,
          37.82
        ]
      },
      "properties": {
        "都道府県": "新潟県",
        "名称": "五頭連峰",
        "地理的特徴・成り立ち": "火山性山地。温泉と崩壊地形。",
        "地形タイプ": "火山地形"
      }
    },
    {
      "type": "Feature",
      "geometry": {
        "type": "Point",
        "coordinates": [
          138.12,
          36.9
        ]
      },
      "properties": {
        "都道府県": "新潟県",
        "名称": "焼山火山",
        "地理的特徴・成り立ち": "活火山。溶岩ドームとラハール地形。",
        "地形タイプ": "火山地形"
      }
    },
    {
      "type": "Feature",
      "geometry": {
        "type": "Point",
        "coordinates": [
          139.07,
          37.95
        ]
      },
      "properties": {
        "都道府県": "新潟県",
        "名称": "信濃川河口砂州",
        "地理的特徴・成り立ち": "河口砂州が発達。",
        "地形タイプ": "砂州・砂嘴"
      }
    },
    {
      "type": "Feature",
      "geometry": {
        "type": "Point",
        "coordinates": [
          137.22,
          36.71
        ]
      },
      "properties": {
        "都道府県": "富山県",
        "名称": "富山平野（神通川・常願寺川）",
        "地理的特徴・成り立ち": "扇状地の集合体。急流河川の粗粒堆積。",
        "地形タイプ": "扇状地"
      }
    },
    {
      "type": "Feature",
      "geometry": {
        "type": "Point",
        "coordinates": [
          136.95,
          36.67
        ]
      },
      "properties": {
        "都道府県": "富山県",
        "名称": "庄川扇状地（砺波）",
        "地理的特徴・成り立ち": "巨大扇状地。散居村景観は扇状地性微地形に適応。",
        "地形タイプ": "扇状地"
      }
    },
    {
      "type": "Feature",
      "geometry": {
        "type": "Point",
        "coordinates": [
          137.05,
          36.79
        ]
      },
      "properties": {
        "都道府県": "富山県",
        "名称": "雨晴海岸",
        "地理的特徴・成り立ち": "礫浜と岩礁の海岸。立山連峰の前面に位置。",
        "地形タイプ": "その他"
      }
    },
    {
      "type": "Feature",
      "geometry": {
        "type": "Point",
        "coordinates": [
          137.08,
          36.79
        ]
      },
      "properties": {
        "都道府県": "富山県",
        "名称": "新湊内川低地",
        "地理的特徴・成り立ち": "ラグーン埋積低地。運河網が発達。",
        "地形タイプ": "氾濫原・低地"
      }
    },
    {
      "type": "Feature",
      "geometry": {
        "type": "Point",
        "coordinates": [
          137.61,
          36.58
        ]
      },
      "properties": {
        "都道府県": "富山県",
        "名称": "立山カルデラ",
        "地理的特徴・成り立ち": "大規模崩壊地形と堆積盆。",
        "地形タイプ": "火山地形"
      }
    },
    {
      "type": "Feature",
      "geometry": {
        "type": "Point",
        "coordinates": [
          137.67,
          36.78
        ]
      },
      "properties": {
        "都道府県": "富山県",
        "名称": "黒部峡谷",
        "地理的特徴・成り立ち": "深いV字峡谷。花崗岩体の直線谷。",
        "地形タイプ": "花崗岩侵食地形"
      }
    },
    {
      "type": "Feature",
      "geometry": {
        "type": "Point",
        "coordinates": [
          137.62,
          36.64
        ]
      },
      "properties": {
        "都道府県": "富山県",
        "名称": "剱岳",
        "地理的特徴・成り立ち": "氷食を受けた鋭鋒。カールと急崖。",
        "地形タイプ": "その他"
      }
    },
    {
      "type": "Feature",
      "geometry": {
        "type": "Point",
        "coordinates": [
          137.55,
          36.56
        ]
      },
      "properties": {
        "都道府県": "富山県",
        "名称": "称名滝・弥陀ヶ原",
        "地理的特徴・成り立ち": "溶岩台地と段差滝。",
        "地形タイプ": "火山地形"
      }
    },
    {
      "type": "Feature",
      "geometry": {
        "type": "Point",
        "coordinates": [
          137.15,
          36.55
        ]
      },
      "properties": {
        "都道府県": "富山県",
        "名称": "八尾丘陵",
        "地理的特徴・成り立ち": "第三紀層の侵食丘陵。",
        "地形タイプ": "その他"
      }
    },
    {
      "type": "Feature",
      "geometry": {
        "type": "Point",
        "coordinates": [
          137.52,
          36.94
        ]
      },
      "properties": {
        "都道府県": "富山県",
        "名称": "入善扇状地",
        "地理的特徴・成り立ち": "黒部川の大型扇状地。伏流水豊富。",
        "地形タイプ": "扇状地"
      }
    },
    {
      "type": "Feature",
      "geometry": {
        "type": "Point",
        "coordinates": [
          137.37,
          36.76
        ]
      },
      "properties": {
        "都道府県": "富山県",
        "名称": "滑川海岸段丘",
        "地理的特徴・成り立ち": "隆起性海岸段丘。",
        "地形タイプ": "海岸段丘"
      }
    },
    {
      "type": "Feature",
      "geometry": {
        "type": "Point",
        "coordinates": [
          137.72,
          36.88
        ]
      },
      "properties": {
        "都道府県": "富山県",
        "名称": "朝日岳山地",
        "地理的特徴・成り立ち": "氷食谷と急峻稜線。",
        "地形タイプ": "その他"
      }
    },
    {
      "type": "Feature",
      "geometry": {
        "type": "Point",
        "coordinates": [
          136.9,
          36.45
        ]
      },
      "properties": {
        "都道府県": "富山県",
        "名称": "五箇山谷底平野（南砺）",
        "地理的特徴・成り立ち": "山間の小規模沖積錐と扇状地。",
        "地形タイプ": "扇状地"
      }
    },
    {
      "type": "Feature",
      "geometry": {
        "type": "Point",
        "coordinates": [
          136.95,
          36.87
        ]
      },
      "properties": {
        "都道府県": "富山県",
        "名称": "氷見灘浦海岸",
        "地理的特徴・成り立ち": "砂浜・岩礁のモザイク海岸。",
        "地形タイプ": "その他"
      }
    },
    {
      "type": "Feature",
      "geometry": {
        "type": "Point",
        "coordinates": [
          137.04,
          36.79
        ]
      },
      "properties": {
        "都道府県": "富山県",
        "名称": "伏木砂州",
        "地理的特徴・成り立ち": "沿岸漂砂で形成された砂州。",
        "地形タイプ": "砂州・砂嘴"
      }
    },
    {
      "type": "Feature",
      "geometry": {
        "type": "Point",
        "coordinates": [
          137.26,
          36.7
        ]
      },
      "properties": {
        "都道府県": "富山県",
        "名称": "常願寺川扇状地扇端湧水群",
        "地理的特徴・成り立ち": "扇端湧水帯が連続。",
        "地形タイプ": "扇状地"
      }
    },
    {
      "type": "Feature",
      "geometry": {
        "type": "Point",
        "coordinates": [
          137.6,
          36.58
        ]
      },
      "properties": {
        "都道府県": "富山県",
        "名称": "立山室堂平",
        "地理的特徴・成り立ち": "高位の溶岩台地と雪蝕地形。",
        "地形タイプ": "火山地形"
      }
    },
    {
      "type": "Feature",
      "geometry": {
        "type": "Point",
        "coordinates": [
          137.56,
          36.46
        ]
      },
      "properties": {
        "都道府県": "富山県",
        "名称": "有峰湖",
        "地理的特徴・成り立ち": "ダム湖。谷壁崩壊堆積が卓越。",
        "地形タイプ": "その他"
      }
    },
    {
      "type": "Feature",
      "geometry": {
        "type": "Point",
        "coordinates": [
          136.9,
          36.79
        ]
      },
      "properties": {
        "都道府県": "富山県",
        "名称": "小矢部川下流平野",
        "地理的特徴・成り立ち": "三角州性低地。",
        "地形タイプ": "三角州"
      }
    },
    {
      "type": "Feature",
      "geometry": {
        "type": "Point",
        "coordinates": [
          137.0,
          36.74
        ]
      },
      "properties": {
        "都道府県": "富山県",
        "名称": "高岡台地",
        "地理的特徴・成り立ち": "段丘面の台地。",
        "地形タイプ": "段丘"
      }
    },
    {
      "type": "Feature",
      "geometry": {
        "type": "Point",
        "coordinates": [
          136.63,
          36.6
        ]
      },
      "properties": {
        "都道府県": "石川県",
        "名称": "金沢平野",
        "地理的特徴・成り立ち": "扇状地〜三角州性平野。砂州・浜堤列が発達。",
        "地形タイプ": "扇状地"
      }
    },
    {
      "type": "Feature",
      "geometry": {
        "type": "Point",
        "coordinates": [
          136.76,
          36.64
        ]
      },
      "properties": {
        "都道府県": "石川県",
        "名称": "河北潟干拓地",
        "地理的特徴・成り立ち": "潟湖の干拓地。泥炭・粘土層が厚い。",
        "地形タイプ": "干潟・干拓低地"
      }
    },
    {
      "type": "Feature",
      "geometry": {
        "type": "Point",
        "coordinates": [
          136.73,
          36.85
        ]
      },
      "properties": {
        "都道府県": "石川県",
        "名称": "千里浜海岸",
        "地理的特徴・成り立ち": "走れる砂浜。長岸流で砂が供給。",
        "地形タイプ": "その他"
      }
    },
    {
      "type": "Feature",
      "geometry": {
        "type": "Point",
        "coordinates": [
          137.21,
          37.37
        ]
      },
      "properties": {
        "都道府県": "石川県",
        "名称": "能登半島外浦海岸",
        "地理的特徴・成り立ち": "外洋性海食崖・波食台が連続。",
        "地形タイプ": "海食崖・波食台"
      }
    },
    {
      "type": "Feature",
      "geometry": {
        "type": "Point",
        "coordinates": [
          136.9,
          37.4
        ]
      },
      "properties": {
        "都道府県": "石川県",
        "名称": "輪島海岸段丘",
        "地理的特徴・成り立ち": "隆起性海岸段丘列。",
        "地形タイプ": "海岸段丘"
      }
    },
    {
      "type": "Feature",
      "geometry": {
        "type": "Point",
        "coordinates": [
          137.03,
          37.07
        ]
      },
      "properties": {
        "都道府県": "石川県",
        "名称": "七尾湾",
        "地理的特徴・成り立ち": "沈水谷の内湾。砂州で湾口制御。",
        "地形タイプ": "砂州・砂嘴"
      }
    },
    {
      "type": "Feature",
      "geometry": {
        "type": "Point",
        "coordinates": [
          136.75,
          36.87
        ]
      },
      "properties": {
        "都道府県": "石川県",
        "名称": "宝達丘陵",
        "地理的特徴・成り立ち": "第三紀層の侵食丘陵。",
        "地形タイプ": "その他"
      }
    },
    {
      "type": "Feature",
      "geometry": {
        "type": "Point",
        "coordinates": [
          136.62,
          36.56
        ]
      },
      "properties": {
        "都道府県": "石川県",
        "名称": "大野川扇状地",
        "地理的特徴・成り立ち": "扇状地。扇端湧水が点在。",
        "地形タイプ": "扇状地"
      }
    },
    {
      "type": "Feature",
      "geometry": {
        "type": "Point",
        "coordinates": [
          136.77,
          36.15
        ]
      },
      "properties": {
        "都道府県": "石川県",
        "名称": "白山（石川側）",
        "地理的特徴・成り立ち": "成層火山。氷食谷・カール地形を伴う。",
        "地形タイプ": "火山地形"
      }
    },